{"type":"FeatureCollection", "features": [
    {"type":"Feature","geometry":{"type":"Point","coordinates":[-68.48597408899991,-54.642256998999926]},"properties":{"NAME":"Tierra del Fuego","DESIG_ENG":"National Park","DESIG_TYPE":"National","IUCN_CAT":"II","INT_CRIT":"Not Applicable","STATUS":"Designated","STATUS_YR":1960,"GOV_TYPE":"Federal or national ministry or agency","ISO3":"ARG"}},
    {"type":"Feature","geometry":{"type":"Point","coordinates":[-65.3341689049999,-24.782346838999956]},"properties":{"NAME":"Campo General Belgrano","DESIG_ENG":"Conservation Area","DESIG_TYPE":"National","IUCN_CAT":"VI","INT_CRIT":"Not Applicable","STATUS":"Designated","STATUS_YR":1996,"GOV_TYPE":"Sub-national ministry or agency","ISO3":"ARG"}},
    {"type":"Feature","geometry":{"type":"Point","coordinates":[-58.76809937599995,-33.96257864899991]},"properties":{"NAME":"Isla Botija","DESIG_ENG":"Multiple Use Nature Reserve","DESIG_TYPE":"National","IUCN_CAT":"VI","INT_CRIT":"Not Applicable","STATUS":"Designated","STATUS_YR":1958,"GOV_TYPE":"Sub-national ministry or agency","ISO3":"ARG"}},
    {"type":"Feature","geometry":{"type":"Point","coordinates":[-68.97184525799992,-51.54684054099994]},"properties":{"NAME":"Isla Deseada","DESIG_ENG":"Scientific Use Area Under Special Protection","DESIG_TYPE":"National","IUCN_CAT":"VI","INT_CRIT":"Not Applicable","STATUS":"Designated","STATUS_YR":1990,"GOV_TYPE":"Sub-national ministry or agency","ISO3":"ARG"}},
    {"type":"Feature","geometry":{"type":"Point","coordinates":[-58.4494157069999,-34.33393685699991]},"properties":{"NAME":"Delta en Formación","DESIG_ENG":"Integral Nature Reserve","DESIG_TYPE":"National","IUCN_CAT":"Not Reported","INT_CRIT":"Not Applicable","STATUS":"Designated","STATUS_YR":1999,"GOV_TYPE":"Sub-national ministry or agency","ISO3":"ARG"}},
    {"type":"Feature","geometry":{"type":"Point","coordinates":[-60.65984356699994,-32.03767865599991]},"properties":{"NAME":"Islote Coria","DESIG_ENG":"Multiple Use Reserve","DESIG_TYPE":"National","IUCN_CAT":"VI","INT_CRIT":"Not Applicable","STATUS":"Designated","STATUS_YR":2005,"GOV_TYPE":"Not Reported","ISO3":"ARG"}},
    {"type":"Feature","geometry":{"type":"Point","coordinates":[-60.06674290099994,-31.572375569999906]},"properties":{"NAME":"Montecito de Lovera","DESIG_ENG":"Multiple Use Reserve","DESIG_TYPE":"National","IUCN_CAT":"VI","INT_CRIT":"Not Applicable","STATUS":"Designated","STATUS_YR":2001,"GOV_TYPE":"Not Reported","ISO3":"ARG"}},
    {"type":"Feature","geometry":{"type":"Point","coordinates":[-59.092946070999915,-33.86333557599994]},"properties":{"NAME":"Parana Guazu","DESIG_ENG":"Nature Reserve","DESIG_TYPE":"National","IUCN_CAT":"IV","INT_CRIT":"Not Applicable","STATUS":"Designated","STATUS_YR":2011,"GOV_TYPE":"Not Reported","ISO3":"ARG"}},
    {"type":"Feature","geometry":{"type":"Point","coordinates":[-60.13851794599992,-32.63880981099993]},"properties":{"NAME":"De los Ombúes","DESIG_ENG":"Municipal Nature Reserve","DESIG_TYPE":"National","IUCN_CAT":"VI","INT_CRIT":"Not Applicable","STATUS":"Designated","STATUS_YR":2002,"GOV_TYPE":"Not Reported","ISO3":"ARG"}},
    {"type":"Feature","geometry":{"type":"Point","coordinates":[-60.16731404299992,-32.566160398999955]},"properties":{"NAME":"El Alisal (Isla El Espinillo)","DESIG_ENG":"Protected Landscape","DESIG_TYPE":"National","IUCN_CAT":"V","INT_CRIT":"Not Applicable","STATUS":"Designated","STATUS_YR":2000,"GOV_TYPE":"Not Reported","ISO3":"ARG"}},
    {"type":"Feature","geometry":{"type":"Point","coordinates":[-59.91730372399991,-32.366157495999914]},"properties":{"NAME":"El Chañar","DESIG_ENG":"Multiple Use Nature Reserve","DESIG_TYPE":"National","IUCN_CAT":"VI","INT_CRIT":"Not Applicable","STATUS":"Designated","STATUS_YR":1996,"GOV_TYPE":"Not Reported","ISO3":"ARG"}},
    {"type":"Feature","geometry":{"type":"Point","coordinates":[-73.13072406999993,-49.22724966399994]},"properties":{"NAME":"Cerro Chalten","DESIG_ENG":"Nature Monument","DESIG_TYPE":"National","IUCN_CAT":"III","INT_CRIT":"Not Applicable","STATUS":"Designated","STATUS_YR":2000,"GOV_TYPE":"Not Reported","ISO3":"ARG"}},
    {"type":"Feature","geometry":{"type":"Point","coordinates":[-72.81886810199995,-49.210543094999935]},"properties":{"NAME":"La Florida","DESIG_ENG":"Provincial Reserve","DESIG_TYPE":"National","IUCN_CAT":"VI","INT_CRIT":"Not Applicable","STATUS":"Designated","STATUS_YR":2004,"GOV_TYPE":"Not Reported","ISO3":"ARG"}},
    {"type":"Feature","geometry":{"type":"Point","coordinates":[-58.01722954899992,-31.382812231999935]},"properties":{"NAME":"Abayuva","DESIG_ENG":"Protected Landscape","DESIG_TYPE":"National","IUCN_CAT":"Not Reported","INT_CRIT":"Not Applicable","STATUS":"Designated","STATUS_YR":1995,"GOV_TYPE":"Not Reported","ISO3":"ARG"}},
    {"type":"Feature","geometry":{"type":"Point","coordinates":[-65.36368816999993,-26.794419442999924]},"properties":{"NAME":"Aconquija","DESIG_ENG":"Provincial Park","DESIG_TYPE":"National","IUCN_CAT":"Not Reported","INT_CRIT":"Not Applicable","STATUS":"Designated","STATUS_YR":1936,"GOV_TYPE":"Not Reported","ISO3":"ARG"}},
    {"type":"Feature","geometry":{"type":"Point","coordinates":[-55.2781128929999,-27.517587384999956]},"properties":{"NAME":"Arboretum L.N. Alem","DESIG_ENG":"Multiple Use Reserve","DESIG_TYPE":"National","IUCN_CAT":"Not Reported","INT_CRIT":"Not Applicable","STATUS":"Designated","STATUS_YR":1994,"GOV_TYPE":"Not Reported","ISO3":"ARG"}},
    {"type":"Feature","geometry":{"type":"Point","coordinates":[-58.109686187999955,-31.213529712999957]},"properties":{"NAME":"Arroyo Ayui Grande","DESIG_ENG":"Private Reserve","DESIG_TYPE":"National","IUCN_CAT":"Not Reported","INT_CRIT":"Not Applicable","STATUS":"Designated","STATUS_YR":2000,"GOV_TYPE":"Not Reported","ISO3":"ARG"}},
    {"type":"Feature","geometry":{"type":"Point","coordinates":[-61.45064635499995,-25.41602576899993]},"properties":{"NAME":"Augusto Schulz","DESIG_ENG":"Resource Reserve","DESIG_TYPE":"National","IUCN_CAT":"Not Reported","INT_CRIT":"Not Applicable","STATUS":"Designated","STATUS_YR":1999,"GOV_TYPE":"Not Reported","ISO3":"ARG"}},
    {"type":"Feature","geometry":{"type":"Point","coordinates":[-65.39787571499994,-32.332684584999924]},"properties":{"NAME":"Bajo De Veliz","DESIG_ENG":"Provincial Park","DESIG_TYPE":"National","IUCN_CAT":"Not Reported","INT_CRIT":"Not Applicable","STATUS":"Designated","STATUS_YR":1989,"GOV_TYPE":"Not Reported","ISO3":"ARG"}},
    {"type":"Feature","geometry":{"type":"Point","coordinates":[-63.617213240999945,-42.30447966399993]},"properties":{"NAME":"Caleta Valdés","DESIG_ENG":"Natural Tourist Reserve","DESIG_TYPE":"National","IUCN_CAT":"Not Reported","INT_CRIT":"Not Applicable","STATUS":"Designated","STATUS_YR":1977,"GOV_TYPE":"Not Reported","ISO3":"ARG"}},
    {"type":"Feature","geometry":{"type":"Point","coordinates":[-64.45518683199992,-40.10899744199992]},"properties":{"NAME":"Camino La Luisa","DESIG_ENG":"Protected Landscape","DESIG_TYPE":"National","IUCN_CAT":"Not Reported","INT_CRIT":"Not Applicable","STATUS":"Designated","STATUS_YR":2011,"GOV_TYPE":"Not Reported","ISO3":"ARG"}},
    {"type":"Feature","geometry":{"type":"Point","coordinates":[-54.78375729599992,-26.56606830499993]},"properties":{"NAME":"Caraguatay","DESIG_ENG":"Ictica Natural Reserve","DESIG_TYPE":"National","IUCN_CAT":"Not Reported","INT_CRIT":"Not Applicable","STATUS":"Designated","STATUS_YR":1979,"GOV_TYPE":"Not Reported","ISO3":"ARG"}},
    {"type":"Feature","geometry":{"type":"Point","coordinates":[-59.03393305599991,-31.582811685999957]},"properties":{"NAME":"Carpincho","DESIG_ENG":"Multiple Use Reserve","DESIG_TYPE":"National","IUCN_CAT":"Not Reported","INT_CRIT":"Not Applicable","STATUS":"Designated","STATUS_YR":1989,"GOV_TYPE":"Not Reported","ISO3":"ARG"}},
    {"type":"Feature","geometry":{"type":"Point","coordinates":[-71.61358350899991,-42.19915396099992]},"properties":{"NAME":"Cerro Currumahuida","DESIG_ENG":"Forest Reserve","DESIG_TYPE":"National","IUCN_CAT":"Not Reported","INT_CRIT":"Not Applicable","STATUS":"Designated","STATUS_YR":1982,"GOV_TYPE":"Not Reported","ISO3":"ARG"}},
    {"type":"Feature","geometry":{"type":"Point","coordinates":[-61.96228630399992,-38.08436156399995]},"properties":{"NAME":"Cerro De La Ventana","DESIG_ENG":"Nature Monument","DESIG_TYPE":"National","IUCN_CAT":"Not Reported","INT_CRIT":"Not Applicable","STATUS":"Designated","STATUS_YR":1995,"GOV_TYPE":"Not Reported","ISO3":"ARG"}},
    {"type":"Feature","geometry":{"type":"Point","coordinates":[-71.43450687299992,-42.19963981099994]},"properties":{"NAME":"Cerro Pirque","DESIG_ENG":"Provincial Park","DESIG_TYPE":"National","IUCN_CAT":"Not Reported","INT_CRIT":"Not Applicable","STATUS":"Designated","STATUS_YR":1993,"GOV_TYPE":"Not Reported","ISO3":"ARG"}},
    {"type":"Feature","geometry":{"type":"Point","coordinates":[-65.36743742199991,-24.882665286999952]},"properties":{"NAME":"Cerro San Bernardo","DESIG_ENG":"Municipal Reserve","DESIG_TYPE":"National","IUCN_CAT":"Not Reported","INT_CRIT":"Not Applicable","STATUS":"Designated","STATUS_YR":1991,"GOV_TYPE":"Not Reported","ISO3":"ARG"}},
    {"type":"Feature","geometry":{"type":"Point","coordinates":[-59.62667596599994,-26.699315491999926]},"properties":{"NAME":"Colonias Unidas","DESIG_ENG":"Multiple Use Reserve","DESIG_TYPE":"National","IUCN_CAT":"Not Reported","INT_CRIT":"Not Applicable","STATUS":"Designated","STATUS_YR":2003,"GOV_TYPE":"Not Reported","ISO3":"ARG"}},
    {"type":"Feature","geometry":{"type":"Point","coordinates":[-59.13390927699993,-26.81605765599994]},"properties":{"NAME":"El Cachape","DESIG_ENG":"Private Wildlife Refuge","DESIG_TYPE":"National","IUCN_CAT":"Not Reported","INT_CRIT":"Not Applicable","STATUS":"Designated","STATUS_YR":1990,"GOV_TYPE":"Not Reported","ISO3":"ARG"}},
    {"type":"Feature","geometry":{"type":"Point","coordinates":[-64.9588990549999,-28.128927327999918]},"properties":{"NAME":"El Mangrullo","DESIG_ENG":"Private Nature Refuge","DESIG_TYPE":"National","IUCN_CAT":"Not Reported","INT_CRIT":"Not Applicable","STATUS":"Designated","STATUS_YR":2006,"GOV_TYPE":"Not Reported","ISO3":"ARG"}},
    {"type":"Feature","geometry":{"type":"Point","coordinates":[-71.60117851199993,-42.116302843999904]},"properties":{"NAME":"El Puelo","DESIG_ENG":"Forest Reserve","DESIG_TYPE":"National","IUCN_CAT":"Not Reported","INT_CRIT":"Not Applicable","STATUS":"Designated","STATUS_YR":1955,"GOV_TYPE":"Not Reported","ISO3":"ARG"}},
    {"type":"Feature","geometry":{"type":"Point","coordinates":[-64.9735578339999,-32.329814607999936]},"properties":{"NAME":"El Tabaquillo - Mogote Bayo","DESIG_ENG":"Private Reserve","DESIG_TYPE":"National","IUCN_CAT":"Not Reported","INT_CRIT":"Not Applicable","STATUS":"Designated","STATUS_YR":1991,"GOV_TYPE":"Not Reported","ISO3":"ARG"}},
    {"type":"Feature","geometry":{"type":"Point","coordinates":[-58.14152203799995,-31.54416032699993]},"properties":{"NAME":"El Talar","DESIG_ENG":"Private Reserve","DESIG_TYPE":"National","IUCN_CAT":"Not Reported","INT_CRIT":"Not Applicable","STATUS":"Designated","STATUS_YR":2005,"GOV_TYPE":"Not Reported","ISO3":"ARG"}},
    {"type":"Feature","geometry":{"type":"Point","coordinates":[-59.01726818399993,-31.84948420899991]},"properties":{"NAME":"Escuela Justo De Urquiza","DESIG_ENG":"Multiple Use Reserve","DESIG_TYPE":"National","IUCN_CAT":"Not Reported","INT_CRIT":"Not Applicable","STATUS":"Designated","STATUS_YR":1992,"GOV_TYPE":"Not Reported","ISO3":"ARG"}},
    {"type":"Feature","geometry":{"type":"Point","coordinates":[-60.55065456299991,-31.71614092899995]},"properties":{"NAME":"General San Martín","DESIG_ENG":"Rural School Park","DESIG_TYPE":"National","IUCN_CAT":"Not Reported","INT_CRIT":"Not Applicable","STATUS":"Designated","STATUS_YR":1950,"GOV_TYPE":"Not Reported","ISO3":"ARG"}},
    {"type":"Feature","geometry":{"type":"Point","coordinates":[-53.781301163999956,-26.064665051999953]},"properties":{"NAME":"General Belgrano","DESIG_ENG":"Forest Reserve","DESIG_TYPE":"National","IUCN_CAT":"Not Reported","INT_CRIT":"Not Applicable","STATUS":"Designated","STATUS_YR":1948,"GOV_TYPE":"Not Reported","ISO3":"ARG"}},
    {"type":"Feature","geometry":{"type":"Point","coordinates":[-59.47566017699995,-27.37820902099992]},"properties":{"NAME":"General Obligado","DESIG_ENG":"Forest Reserve","DESIG_TYPE":"National","IUCN_CAT":"Not Reported","INT_CRIT":"Not Applicable","STATUS":"Designated","STATUS_YR":1948,"GOV_TYPE":"Not Reported","ISO3":"ARG"}},
    {"type":"Feature","geometry":{"type":"Point","coordinates":[-66.52633343699995,-30.80146927599992]},"properties":{"NAME":"Guasamayo","DESIG_ENG":"Provincial Park","DESIG_TYPE":"National","IUCN_CAT":"Not Reported","INT_CRIT":"Not Applicable","STATUS":"Designated","STATUS_YR":1963,"GOV_TYPE":"Not Reported","ISO3":"ARG"}},
    {"type":"Feature","geometry":{"type":"Point","coordinates":[-65.73318557499994,-27.161692128999903]},"properties":{"NAME":"Ibatin","DESIG_ENG":"Provincial Park","DESIG_TYPE":"National","IUCN_CAT":"Not Reported","INT_CRIT":"Not Applicable","STATUS":"Designated","STATUS_YR":1995,"GOV_TYPE":"Not Reported","ISO3":"ARG"}},
    {"type":"Feature","geometry":{"type":"Point","coordinates":[-54.76843883299995,-26.592552789999957]},"properties":{"NAME":"Isla Caraguatay","DESIG_ENG":"Provincial Park","DESIG_TYPE":"National","IUCN_CAT":"Not Reported","INT_CRIT":"Not Applicable","STATUS":"Designated","STATUS_YR":1979,"GOV_TYPE":"Not Reported","ISO3":"ARG"}},
    {"type":"Feature","geometry":{"type":"Point","coordinates":[-64.51757941299991,-42.41637583799991]},"properties":{"NAME":"Isla de los Pájaros","DESIG_ENG":"Natural Tourist Reserve","DESIG_TYPE":"National","IUCN_CAT":"Not Reported","INT_CRIT":"Not Applicable","STATUS":"Designated","STATUS_YR":1967,"GOV_TYPE":"Not Reported","ISO3":"ARG"}},
    {"type":"Feature","geometry":{"type":"Point","coordinates":[-66.13420699799991,-34.449496832999955]},"properties":{"NAME":"Islas De San Felipe","DESIG_ENG":"Nature Reserve","DESIG_TYPE":"National","IUCN_CAT":"Not Reported","INT_CRIT":"Not Applicable","STATUS":"Designated","STATUS_YR":1990,"GOV_TYPE":"Not Reported","ISO3":"ARG"}},
    {"type":"Feature","geometry":{"type":"Point","coordinates":[-60.51732038999995,-31.716141099999902]},"properties":{"NAME":"Las Piedras, Camping Tomavieja y Balneario Thompson","DESIG_ENG":"Protected Landscape","DESIG_TYPE":"National","IUCN_CAT":"Not Reported","INT_CRIT":"Not Applicable","STATUS":"Designated","STATUS_YR":1987,"GOV_TYPE":"Not Reported","ISO3":"ARG"}},
    {"type":"Feature","geometry":{"type":"Point","coordinates":[-66.05085769199991,-33.116136386999926]},"properties":{"NAME":"La Florida R.","DESIG_ENG":"Provincial Flora and Fauna Reserve","DESIG_TYPE":"National","IUCN_CAT":"Not Reported","INT_CRIT":"Not Applicable","STATUS":"Designated","STATUS_YR":1984,"GOV_TYPE":"Not Reported","ISO3":"ARG"}},
    {"type":"Feature","geometry":{"type":"Point","coordinates":[-65.58411202099995,-25.149334893999935]},"properties":{"NAME":"La Laguna","DESIG_ENG":"Wildlife Area","DESIG_TYPE":"National","IUCN_CAT":"Not Reported","INT_CRIT":"Not Applicable","STATUS":"Designated","STATUS_YR":1991,"GOV_TYPE":"Not Reported","ISO3":"ARG"}},
    {"type":"Feature","geometry":{"type":"Point","coordinates":[-71.47947650999993,-43.82034381699992]},"properties":{"NAME":"Lago Guacho","DESIG_ENG":"Forest Reserve","DESIG_TYPE":"National","IUCN_CAT":"Not Reported","INT_CRIT":"Not Applicable","STATUS":"Designated","STATUS_YR":1986,"GOV_TYPE":"Not Reported","ISO3":"ARG"}},
    {"type":"Feature","geometry":{"type":"Point","coordinates":[-68.27674632299994,-41.38437412099995]},"properties":{"NAME":"Laguna Carri Laufquen","DESIG_ENG":"Public Tourist Park","DESIG_TYPE":"National","IUCN_CAT":"Not Reported","INT_CRIT":"Not Applicable","STATUS":"Designated","STATUS_YR":1959,"GOV_TYPE":"Not Reported","ISO3":"ARG"}},
    {"type":"Feature","geometry":{"type":"Point","coordinates":[-57.700596626999925,-37.94963178899991]},"properties":{"NAME":"Laguna de los Padres","DESIG_ENG":"Botanical Reserve","DESIG_TYPE":"National","IUCN_CAT":"Not Reported","INT_CRIT":"Not Applicable","STATUS":"Designated","STATUS_YR":1949,"GOV_TYPE":"Not Reported","ISO3":"ARG"}},
    {"type":"Feature","geometry":{"type":"Point","coordinates":[-62.05291449999993,-33.01908270599995]},"properties":{"NAME":"Las Dos Hermanas","DESIG_ENG":"Private Wildlife Refuge","DESIG_TYPE":"National","IUCN_CAT":"Not Reported","INT_CRIT":"Not Applicable","STATUS":"Designated","STATUS_YR":1989,"GOV_TYPE":"Not Reported","ISO3":"ARG"}},
    {"type":"Feature","geometry":{"type":"Point","coordinates":[-70.78450637399993,-43.46634862399992]},"properties":{"NAME":"Las Horquetas","DESIG_ENG":"Forest Reserve","DESIG_TYPE":"National","IUCN_CAT":"Not Reported","INT_CRIT":"Not Applicable","STATUS":"Designated","STATUS_YR":1989,"GOV_TYPE":"Not Reported","ISO3":"ARG"}},
    {"type":"Feature","geometry":{"type":"Point","coordinates":[-58.917293668999946,-27.55776799599994]},"properties":{"NAME":"Litoral Chaqueño","DESIG_ENG":"Provincial Park","DESIG_TYPE":"National","IUCN_CAT":"Not Reported","INT_CRIT":"Not Applicable","STATUS":"Designated","STATUS_YR":1970,"GOV_TYPE":"Not Reported","ISO3":"ARG"}},
    {"type":"Feature","geometry":{"type":"Point","coordinates":[-65.69002666799992,-28.41577251399991]},"properties":{"NAME":"Merced De Altapauca","DESIG_ENG":"Private Wildlife Refuge","DESIG_TYPE":"National","IUCN_CAT":"VI","INT_CRIT":"Not Applicable","STATUS":"Designated","STATUS_YR":2004,"GOV_TYPE":"Not Reported","ISO3":"ARG"}},
    {"type":"Feature","geometry":{"type":"Point","coordinates":[-64.83174641799991,-30.386715687999924]},"properties":{"NAME":"Paso Viejo","DESIG_ENG":"Wildlife Refuge","DESIG_TYPE":"National","IUCN_CAT":"Not Reported","INT_CRIT":"Not Applicable","STATUS":"Designated","STATUS_YR":2005,"GOV_TYPE":"Not Reported","ISO3":"ARG"}},
    {"type":"Feature","geometry":{"type":"Point","coordinates":[-58.32277817699992,-33.08960837299992]},"properties":{"NAME":"Potrero De San Lorenzo","DESIG_ENG":"National Reserve","DESIG_TYPE":"National","IUCN_CAT":"VI","INT_CRIT":"Not Applicable","STATUS":"Designated","STATUS_YR":2015,"GOV_TYPE":"Not Reported","ISO3":"ARG"}},
    {"type":"Feature","geometry":{"type":"Point","coordinates":[-59.85602799399993,-26.983272610999904]},"properties":{"NAME":"Presidencia De La Plaza","DESIG_ENG":"Forest Reserve","DESIG_TYPE":"National","IUCN_CAT":"Not Reported","INT_CRIT":"Not Applicable","STATUS":"Designated","STATUS_YR":1935,"GOV_TYPE":"Not Reported","ISO3":"ARG"}},
    {"type":"Feature","geometry":{"type":"Point","coordinates":[-60.43969907699994,-26.789888268999903]},"properties":{"NAME":"Presidencia Roque Sáenz Peña","DESIG_ENG":"Multiple Use Reserve","DESIG_TYPE":"National","IUCN_CAT":"Not Reported","INT_CRIT":"Not Applicable","STATUS":"Designated","STATUS_YR":2001,"GOV_TYPE":"Not Reported","ISO3":"ARG"}},
    {"type":"Feature","geometry":{"type":"Point","coordinates":[-63.6310529079999,-42.744790921999936]},"properties":{"NAME":"Punta Delgada","DESIG_ENG":"Natural Tourist Reserve","DESIG_TYPE":"National","IUCN_CAT":"Not Reported","INT_CRIT":"Not Applicable","STATUS":"Designated","STATUS_YR":1969,"GOV_TYPE":"Not Reported","ISO3":"ARG"}},
    {"type":"Feature","geometry":{"type":"Point","coordinates":[-63.76754489099994,-42.06637173599995]},"properties":{"NAME":"Punta Norte","DESIG_ENG":"Natural Tourist Reserve","DESIG_TYPE":"National","IUCN_CAT":"Not Reported","INT_CRIT":"Not Applicable","STATUS":"Designated","STATUS_YR":1967,"GOV_TYPE":"Not Reported","ISO3":"ARG"}},
    {"type":"Feature","geometry":{"type":"Point","coordinates":[-64.3123825319999,-42.57905586399994]},"properties":{"NAME":"Punta Pirámides","DESIG_ENG":"Natural Tourist Reserve","DESIG_TYPE":"National","IUCN_CAT":"Not Reported","INT_CRIT":"Not Applicable","STATUS":"Designated","STATUS_YR":1974,"GOV_TYPE":"Not Reported","ISO3":"ARG"}},
    {"type":"Feature","geometry":{"type":"Point","coordinates":[-66.90967251199993,-32.359661571999936]},"properties":{"NAME":"Quebracho de la Legua","DESIG_ENG":"National Reserve","DESIG_TYPE":"National","IUCN_CAT":"Not Reported","INT_CRIT":"Not Applicable","STATUS":"Designated","STATUS_YR":1979,"GOV_TYPE":"Not Reported","ISO3":"ARG"}},
    {"type":"Feature","geometry":{"type":"Point","coordinates":[-54.06706255499995,-25.616054291999944]},"properties":{"NAME":"Rincon del Iguazú","DESIG_ENG":"Private Wildlife Refuge","DESIG_TYPE":"National","IUCN_CAT":"Not Reported","INT_CRIT":"Not Applicable","STATUS":"Designated","STATUS_YR":1996,"GOV_TYPE":"Not Reported","ISO3":"ARG"}},
    {"type":"Feature","geometry":{"type":"Point","coordinates":[-54.68375325499994,-26.432732321999936]},"properties":{"NAME":"Salto Kuppers","DESIG_ENG":"Municipal Nature Park","DESIG_TYPE":"National","IUCN_CAT":"Not Reported","INT_CRIT":"Not Applicable","STATUS":"Designated","STATUS_YR":1995,"GOV_TYPE":"Not Reported","ISO3":"ARG"}},
    {"type":"Feature","geometry":{"type":"Point","coordinates":[-65.25083229099994,-33.349479637999934]},"properties":{"NAME":"San Martín Del Alto Negro","DESIG_ENG":"Private Wildlife Refuge","DESIG_TYPE":"National","IUCN_CAT":"VI","INT_CRIT":"Not Applicable","STATUS":"Designated","STATUS_YR":1995,"GOV_TYPE":"Not Reported","ISO3":"ARG"}},
    {"type":"Feature","geometry":{"type":"Point","coordinates":[-70.2352449089999,-39.90516493599995]},"properties":{"NAME":"Santa Teresa","DESIG_ENG":"Private Wildlife Refuge","DESIG_TYPE":"National","IUCN_CAT":"VI","INT_CRIT":"Not Applicable","STATUS":"Designated","STATUS_YR":2004,"GOV_TYPE":"Not Reported","ISO3":"ARG"}},
    {"type":"Feature","geometry":{"type":"Point","coordinates":[-64.93803290599993,-32.5546616229999]},"properties":{"NAME":"Sierra de los Comechingones","DESIG_ENG":"Conservation Unit","DESIG_TYPE":"National","IUCN_CAT":"Not Reported","INT_CRIT":"Not Applicable","STATUS":"Designated","STATUS_YR":2003,"GOV_TYPE":"Not Reported","ISO3":"ARG"}},
    {"type":"Feature","geometry":{"type":"Point","coordinates":[-64.55078840499993,-31.116106593999916]},"properties":{"NAME":"Vaquerías","DESIG_ENG":"National Reserve","DESIG_TYPE":"National","IUCN_CAT":"VI","INT_CRIT":"Not Applicable","STATUS":"Designated","STATUS_YR":1991,"GOV_TYPE":"Not Reported","ISO3":"ARG"}},
    {"type":"Feature","geometry":{"type":"Point","coordinates":[-59.50969590799991,-29.22128905799991]},"properties":{"NAME":"Vira Pita","DESIG_ENG":"Municipal Nature Park","DESIG_TYPE":"National","IUCN_CAT":"Not Reported","INT_CRIT":"Not Applicable","STATUS":"Designated","STATUS_YR":1963,"GOV_TYPE":"Not Reported","ISO3":"ARG"}},
    {"type":"Feature","geometry":{"type":"Point","coordinates":[-54.1141649889999,-25.949422932999937]},"properties":{"NAME":"Yacutinga","DESIG_ENG":"Private Wildlife Refuge","DESIG_TYPE":"National","IUCN_CAT":"Not Reported","INT_CRIT":"Not Applicable","STATUS":"Designated","STATUS_YR":2000,"GOV_TYPE":"Not Reported","ISO3":"ARG"}},
    {"type":"Feature","geometry":{"type":"Point","coordinates":[-58.22204914999992,-31.25937263299994]},"properties":{"NAME":"Yuqueri","DESIG_ENG":"Private Reserve","DESIG_TYPE":"National","IUCN_CAT":"VI","INT_CRIT":"Not Applicable","STATUS":"Designated","STATUS_YR":2005,"GOV_TYPE":"Not Reported","ISO3":"ARG"}},
    {"type":"Feature","geometry":{"type":"Point","coordinates":[-58.00056165399991,-31.332811291999917]},"properties":{"NAME":"Zona Protección de Aves Silvestres","DESIG_ENG":"Protected Landscape","DESIG_TYPE":"National","IUCN_CAT":"Not Reported","INT_CRIT":"Not Applicable","STATUS":"Designated","STATUS_YR":1993,"GOV_TYPE":"Not Reported","ISO3":"ARG"}},
    {"type":"Feature","geometry":{"type":"Point","coordinates":[-59.44063438399991,-29.43221007199992]},"properties":{"NAME":"Isoró","DESIG_ENG":"Ictica Reserve","DESIG_TYPE":"National","IUCN_CAT":"VI","INT_CRIT":"Not Applicable","STATUS":"Designated","STATUS_YR":1984,"GOV_TYPE":"Not Reported","ISO3":"ARG"}},
    {"type":"Feature","geometry":{"type":"Point","coordinates":[-65.20733278699993,-26.61200297599993]},"properties":{"NAME":"Aguas Chiquitas","DESIG_ENG":"Natural reserve","DESIG_TYPE":"National","IUCN_CAT":"VI","INT_CRIT":"Not Applicable","STATUS":"Designated","STATUS_YR":1982,"GOV_TYPE":"Not Reported","ISO3":"ARG"}},
    {"type":"Feature","geometry":{"type":"Point","coordinates":[-60.330802683999934,-33.217390638999916]},"properties":{"NAME":"Isla del Sol","DESIG_ENG":"Municipal Reserve","DESIG_TYPE":"National","IUCN_CAT":"VI","INT_CRIT":"Not Applicable","STATUS":"Designated","STATUS_YR":1993,"GOV_TYPE":"Not Reported","ISO3":"ARG"}},
    {"type":"Feature","geometry":{"type":"Point","coordinates":[-60.9595130159999,-32.15620382599991]},"properties":{"NAME":"La Noria","DESIG_ENG":"Multiple Use Reserve","DESIG_TYPE":"National","IUCN_CAT":"VI","INT_CRIT":"Not Applicable","STATUS":"Designated","STATUS_YR":1999,"GOV_TYPE":"Not Reported","ISO3":"ARG"}},
    {"type":"Feature","geometry":{"type":"Point","coordinates":[-68.86666666699995,-16.16666666699996]},"properties":{"NAME":"Lago Titicaca","DESIG_ENG":"Ramsar Site, Wetland of International Importance","DESIG_TYPE":"International","IUCN_CAT":"Not Reported","INT_CRIT":"(i) (ii) (iii) (v) (vi) (vii)","STATUS":"Designated","STATUS_YR":1998,"GOV_TYPE":"Not Reported","ISO3":"BOL"}},
    {"type":"Feature","geometry":{"type":"Point","coordinates":[-65.09999999999991,-21.783333332999916]},"properties":{"NAME":"Cuenca de Tajzara","DESIG_ENG":"Ramsar Site, Wetland of International Importance","DESIG_TYPE":"International","IUCN_CAT":"Not Reported","INT_CRIT":"(i) (ii) (iii) (iv) (v)","STATUS":"Designated","STATUS_YR":2000,"GOV_TYPE":"Not Reported","ISO3":"BOL"}},
    {"type":"Feature","geometry":{"type":"Point","coordinates":[-61.816666666999936,-18.449999999999932]},"properties":{"NAME":"Bañados del Izozog y el río Parapetí","DESIG_ENG":"Ramsar Site, Wetland of International Importance","DESIG_TYPE":"International","IUCN_CAT":"Not Reported","INT_CRIT":"(i) (ii) (iii) (iv) (v) (vii) (viii)","STATUS":"Designated","STATUS_YR":2001,"GOV_TYPE":"Not Reported","ISO3":"BOL"}},
    {"type":"Feature","geometry":{"type":"Point","coordinates":[-60.99999999999994,-19.249999999999943]},"properties":{"NAME":"Palmar de las Islas y las Salinas de San José","DESIG_ENG":"Ramsar Site, Wetland of International Importance","DESIG_TYPE":"International","IUCN_CAT":"Not Reported","INT_CRIT":"(i) (ii) (iv)","STATUS":"Designated","STATUS_YR":2001,"GOV_TYPE":"Not Reported","ISO3":"BOL"}},
    {"type":"Feature","geometry":{"type":"Point","coordinates":[-58.49999999999994,-17.999999999999943]},"properties":{"NAME":"Pantanal Boliviano","DESIG_ENG":"Ramsar Site, Wetland of International Importance","DESIG_TYPE":"International","IUCN_CAT":"Not Reported","INT_CRIT":"(i) (ii) (iii) (iv) (v) (vii) (viii)","STATUS":"Designated","STATUS_YR":2001,"GOV_TYPE":"Not Reported","ISO3":"BOL"}},
    {"type":"Feature","geometry":{"type":"Point","coordinates":[-61.34999999999991,-17.516666666999924]},"properties":{"NAME":"Laguna Concepción","DESIG_ENG":"Ramsar Site, Wetland of International Importance","DESIG_TYPE":"International","IUCN_CAT":"Not Reported","INT_CRIT":"(i) (ii) (iv) (v) (viii)","STATUS":"Designated","STATUS_YR":2002,"GOV_TYPE":"Not Reported","ISO3":"BOL"}},
    {"type":"Feature","geometry":{"type":"Point","coordinates":[-67.11666666699995,-18.766666665999935]},"properties":{"NAME":"Lagos Poopó y Uru Uru","DESIG_ENG":"Ramsar Site, Wetland of International Importance","DESIG_TYPE":"International","IUCN_CAT":"Not Reported","INT_CRIT":"(i) (ii) (iii) (iv) (v) (vi) (vii) (viii)","STATUS":"Designated","STATUS_YR":2002,"GOV_TYPE":"Not Reported","ISO3":"BOL"}},
    {"type":"Feature","geometry":{"type":"Point","coordinates":[-63.39305555599992,-13.633055554999942]},"properties":{"NAME":"Río Blanco","DESIG_ENG":"Ramsar Site, Wetland of International Importance","DESIG_TYPE":"International","IUCN_CAT":"Not Reported","INT_CRIT":"(i) (ii) (iii) (iv) (v) (vi) (vii) (viii) (ix)","STATUS":"Designated","STATUS_YR":2013,"GOV_TYPE":"Not Reported","ISO3":"BOL"}},
    {"type":"Feature","geometry":{"type":"Point","coordinates":[-66.19999999999993,-14.81499999999994]},"properties":{"NAME":"Río Matos","DESIG_ENG":"Ramsar Site, Wetland of International Importance","DESIG_TYPE":"International","IUCN_CAT":"Not Reported","INT_CRIT":"(i) (ii) (iii) (iv) (vii) (viii)","STATUS":"Designated","STATUS_YR":2013,"GOV_TYPE":"Not Reported","ISO3":"BOL"}},
    {"type":"Feature","geometry":{"type":"Point","coordinates":[-66.10305555499991,-12.308888888999945]},"properties":{"NAME":"Río Yata","DESIG_ENG":"Ramsar Site, Wetland of International Importance","DESIG_TYPE":"International","IUCN_CAT":"Not Reported","INT_CRIT":"(i) (ii) (iii) (iv) (v) (vi) (vii) (viii) (ix)","STATUS":"Designated","STATUS_YR":2013,"GOV_TYPE":"Not Reported","ISO3":"BOL"}},
    {"type":"Feature","geometry":{"type":"Point","coordinates":[-69.1699999999999,-15.039999999999907]},"properties":{"NAME":"Reserva Nacional de Fauna \"Ulla Ulla\"","DESIG_ENG":"UNESCO-MAB Biosphere Reserve","DESIG_TYPE":"International","IUCN_CAT":"Not Applicable","INT_CRIT":"Not Applicable","STATUS":"Designated","STATUS_YR":1977,"GOV_TYPE":"Not Reported","ISO3":"BOL"}},
    {"type":"Feature","geometry":{"type":"Point","coordinates":[-44.94999999999993,-2.999999999999943]},"properties":{"NAME":"Baixada Maranhense Environmental Protection Area","DESIG_ENG":"Ramsar Site, Wetland of International Importance","DESIG_TYPE":"International","IUCN_CAT":"Not Reported","INT_CRIT":"(i) (ii) (iii) (iv) (v) (vii) (viii)","STATUS":"Designated","STATUS_YR":2000,"GOV_TYPE":"Not Reported","ISO3":"BRA"}},
    {"type":"Feature","geometry":{"type":"Point","coordinates":[-44.74999999999994,-0.49999999999994316]},"properties":{"NAME":"Par.Est.Mar. do Parcel Manoel Luís incl. the Baixios do Mestre Alvaro and Tarol","DESIG_ENG":"Ramsar Site, Wetland of International Importance","DESIG_TYPE":"International","IUCN_CAT":"Not Reported","INT_CRIT":"(i) (ii) (iii) (iv) (vii) (viii)","STATUS":"Designated","STATUS_YR":2000,"GOV_TYPE":"Not Reported","ISO3":"BRA"}},
    {"type":"Feature","geometry":{"type":"Point","coordinates":[-56.24999999999994,-16.64999999999992]},"properties":{"NAME":"Reserva Particular do Patrimonio Natural SESC Pantanal","DESIG_ENG":"Ramsar Site, Wetland of International Importance","DESIG_TYPE":"International","IUCN_CAT":"Not Reported","INT_CRIT":"(i) (ii) (iii) (iv) (v) (vii) (viii)","STATUS":"Designated","STATUS_YR":2002,"GOV_TYPE":"Not Reported","ISO3":"BRA"}},
    {"type":"Feature","geometry":{"type":"Point","coordinates":[-38.816666666999936,-17.816666665999946]},"properties":{"NAME":"Abrolhos Marine National Park","DESIG_ENG":"Ramsar Site, Wetland of International Importance","DESIG_TYPE":"International","IUCN_CAT":"Not Reported","INT_CRIT":"(i) (ii) (iii) (iv) (vi) (vii) (viii)","STATUS":"Designated","STATUS_YR":2010,"GOV_TYPE":"Not Reported","ISO3":"BRA"}},
    {"type":"Feature","geometry":{"type":"Point","coordinates":[-51.18999999999994,3.6497222220000936]},"properties":{"NAME":"Cabo Orange National Park","DESIG_ENG":"Ramsar Site, Wetland of International Importance","DESIG_TYPE":"International","IUCN_CAT":"Not Reported","INT_CRIT":"(i) (ii)","STATUS":"Designated","STATUS_YR":2013,"GOV_TYPE":"Not Reported","ISO3":"BRA"}},
    {"type":"Feature","geometry":{"type":"Point","coordinates":[-59.216413572999954,-3.3230915129999516]},"properties":{"NAME":"Tracajá","DESIG_ENG":"Indigenous Area","DESIG_TYPE":"National","IUCN_CAT":"Not Reported","INT_CRIT":"Not Applicable","STATUS":"Designated","STATUS_YR":2004,"GOV_TYPE":"Not Reported","ISO3":"BRA"}},
    {"type":"Feature","geometry":{"type":"Point","coordinates":[-69.02847971599994,-2.9538300259999346]},"properties":{"NAME":"Boca do Cano do Correio","DESIG_ENG":"Indigenous Area","DESIG_TYPE":"National","IUCN_CAT":"Not Reported","INT_CRIT":"Not Applicable","STATUS":"Designated","STATUS_YR":2004,"GOV_TYPE":"Not Reported","ISO3":"BRA"}},
    {"type":"Feature","geometry":{"type":"Point","coordinates":[-59.152844848999905,-3.4496419529999116]},"properties":{"NAME":"Pantaleão","DESIG_ENG":"Indigenous Area","DESIG_TYPE":"National","IUCN_CAT":"Not Reported","INT_CRIT":"Not Applicable","STATUS":"Designated","STATUS_YR":1996,"GOV_TYPE":"Not Reported","ISO3":"BRA"}},
    {"type":"Feature","geometry":{"type":"Point","coordinates":[-55.008233427999926,-3.147340695999958]},"properties":{"NAME":"Marituba","DESIG_ENG":"Indigenous Area","DESIG_TYPE":"National","IUCN_CAT":"Not Reported","INT_CRIT":"Not Applicable","STATUS":"Designated","STATUS_YR":2005,"GOV_TYPE":"Not Reported","ISO3":"BRA"}},
    {"type":"Feature","geometry":{"type":"Point","coordinates":[-51.73008219399992,-3.513488056999961]},"properties":{"NAME":"Maia","DESIG_ENG":"Indigenous Area","DESIG_TYPE":"National","IUCN_CAT":"Not Reported","INT_CRIT":"Not Applicable","STATUS":"Designated","STATUS_YR":2005,"GOV_TYPE":"Not Reported","ISO3":"BRA"}},
    {"type":"Feature","geometry":{"type":"Point","coordinates":[-52.80799064699994,-12.932567959999915]},"properties":{"NAME":"Naruwoto","DESIG_ENG":"Indigenous Area","DESIG_TYPE":"National","IUCN_CAT":"Not Reported","INT_CRIT":"Not Applicable","STATUS":"Designated","STATUS_YR":2004,"GOV_TYPE":"Not Reported","ISO3":"BRA"}},
    {"type":"Feature","geometry":{"type":"Point","coordinates":[-39.355060944999934,-16.899151608999944]},"properties":{"NAME":"Corumbauzinho","DESIG_ENG":"Indigenous Area","DESIG_TYPE":"National","IUCN_CAT":"Not Reported","INT_CRIT":"Not Applicable","STATUS":"Designated","STATUS_YR":2005,"GOV_TYPE":"Not Reported","ISO3":"BRA"}},
    {"type":"Feature","geometry":{"type":"Point","coordinates":[-37.81390806899992,-8.820565515999931]},"properties":{"NAME":"Fazenda Funil","DESIG_ENG":"Indigenous Area","DESIG_TYPE":"National","IUCN_CAT":"Not Reported","INT_CRIT":"Not Applicable","STATUS":"Designated","STATUS_YR":0,"GOV_TYPE":"Not Reported","ISO3":"BRA"}},
    {"type":"Feature","geometry":{"type":"Point","coordinates":[-47.380999999999915,-10.657999999999959]},"properties":{"NAME":"Cerrado","DESIG_ENG":"UNESCO-MAB Biosphere Reserve","DESIG_TYPE":"International","IUCN_CAT":"Not Applicable","INT_CRIT":"Not Applicable","STATUS":"Designated","STATUS_YR":1993,"GOV_TYPE":"Not Reported","ISO3":"BRA"}},
    {"type":"Feature","geometry":{"type":"Point","coordinates":[-56.666666999999904,-17.833332999999925]},"properties":{"NAME":"Pantanal","DESIG_ENG":"UNESCO-MAB Biosphere Reserve","DESIG_TYPE":"International","IUCN_CAT":"Not Applicable","INT_CRIT":"Not Applicable","STATUS":"Designated","STATUS_YR":2000,"GOV_TYPE":"Not Reported","ISO3":"BRA"}},
    {"type":"Feature","geometry":{"type":"Point","coordinates":[-39.73699999999991,-9.505999999999915]},"properties":{"NAME":"Caatinga","DESIG_ENG":"UNESCO-MAB Biosphere Reserve","DESIG_TYPE":"International","IUCN_CAT":"Not Applicable","INT_CRIT":"Not Applicable","STATUS":"Designated","STATUS_YR":2001,"GOV_TYPE":"Not Reported","ISO3":"BRA"}},
    {"type":"Feature","geometry":{"type":"Point","coordinates":[-63.19999999999993,-3.199999999999932]},"properties":{"NAME":"Central Amazon","DESIG_ENG":"UNESCO-MAB Biosphere Reserve","DESIG_TYPE":"International","IUCN_CAT":"Not Applicable","INT_CRIT":"Not Applicable","STATUS":"Designated","STATUS_YR":2001,"GOV_TYPE":"Not Reported","ISO3":"BRA"}},
    {"type":"Feature","geometry":{"type":"Point","coordinates":[-43.49999999999994,-17.499999999999943]},"properties":{"NAME":"Espinhaço Range","DESIG_ENG":"UNESCO-MAB Biosphere Reserve","DESIG_TYPE":"International","IUCN_CAT":"Not Applicable","INT_CRIT":"Not Applicable","STATUS":"Designated","STATUS_YR":2005,"GOV_TYPE":"Not Reported","ISO3":"BRA"}},
    {"type":"Feature","geometry":{"type":"Point","coordinates":[-39.39999999999992,-17.199999999999932]},"properties":{"NAME":"Mata Atlântica (including Sao Paulo Green Belt)","DESIG_ENG":"UNESCO-MAB Biosphere Reserve","DESIG_TYPE":"International","IUCN_CAT":"Not Applicable","INT_CRIT":"Not Applicable","STATUS":"Designated","STATUS_YR":1993,"GOV_TYPE":"Not Reported","ISO3":"BRA"}},
    {"type":"Feature","geometry":{"type":"Point","coordinates":[-71.26659999999993,-37.36659999999995]},"properties":{"NAME":"Corredor Biologico Nevados de Chillan-Laguna del Laja","DESIG_ENG":"UNESCO-MAB Biosphere Reserve","DESIG_TYPE":"International","IUCN_CAT":"Not Applicable","INT_CRIT":"Not Applicable","STATUS":"Designated","STATUS_YR":2011,"GOV_TYPE":"Not Reported","ISO3":"CHL"}},
    {"type":"Feature","geometry":{"type":"Point","coordinates":[-74.4833333329999,10.750000000000057]},"properties":{"NAME":"Sistema Delta Estuarino del Río Magdalena, Ciénaga Grande de Santa Marta","DESIG_ENG":"Ramsar Site, Wetland of International Importance","DESIG_TYPE":"International","IUCN_CAT":"Not Reported","INT_CRIT":"(i) (iii) (iv) (vii) (viii)","STATUS":"Designated","STATUS_YR":1998,"GOV_TYPE":"Not Reported","ISO3":"COL"}},
    {"type":"Feature","geometry":{"type":"Point","coordinates":[-77.19999999999993,1.0500000000000682]},"properties":{"NAME":"Laguna de la Cocha","DESIG_ENG":"Ramsar Site, Wetland of International Importance","DESIG_TYPE":"International","IUCN_CAT":"Not Reported","INT_CRIT":"(i) (ii) (iv) (v)","STATUS":"Designated","STATUS_YR":2001,"GOV_TYPE":"Not Reported","ISO3":"COL"}},
    {"type":"Feature","geometry":{"type":"Point","coordinates":[-77.36666666699995,4.883333333000053]},"properties":{"NAME":"Delta del Río Baudó","DESIG_ENG":"Ramsar Site, Wetland of International Importance","DESIG_TYPE":"International","IUCN_CAT":"Not Reported","INT_CRIT":"(i) (iii) (iv) (vii) (viii)","STATUS":"Designated","STATUS_YR":2004,"GOV_TYPE":"Not Reported","ISO3":"COL"}},
    {"type":"Feature","geometry":{"type":"Point","coordinates":[-75.41666666599991,4.750000000000057]},"properties":{"NAME":"Complejo de Humedales Laguna del Otún","DESIG_ENG":"Ramsar Site, Wetland of International Importance","DESIG_TYPE":"International","IUCN_CAT":"Not Reported","INT_CRIT":"(i) (ii) (iii) (vi)","STATUS":"Designated","STATUS_YR":2008,"GOV_TYPE":"Not Reported","ISO3":"COL"}},
    {"type":"Feature","geometry":{"type":"Point","coordinates":[-73.74999999999994,4.500000000000057]},"properties":{"NAME":"Sistema Lacustre de Chingaza","DESIG_ENG":"Ramsar Site, Wetland of International Importance","DESIG_TYPE":"International","IUCN_CAT":"Not Reported","INT_CRIT":"(i) (ii) (iii)","STATUS":"Designated","STATUS_YR":2008,"GOV_TYPE":"Not Reported","ISO3":"COL"}},
    {"type":"Feature","geometry":{"type":"Point","coordinates":[-67.85827999999992,3.821903000000077]},"properties":{"NAME":"Complejo de Humedales de la Estrella Fluvial Inírida (EFI)","DESIG_ENG":"Ramsar Site, Wetland of International Importance","DESIG_TYPE":"International","IUCN_CAT":"Not Reported","INT_CRIT":"(i) (ii) (iii) (vii) (viii)","STATUS":"Designated","STATUS_YR":2014,"GOV_TYPE":"Not Reported","ISO3":"COL"}},
    {"type":"Feature","geometry":{"type":"Point","coordinates":[-74.1699999999999,11.300000000000068]},"properties":{"NAME":"Sierra Nevada de Santa Marta","DESIG_ENG":"UNESCO-MAB Biosphere Reserve","DESIG_TYPE":"International","IUCN_CAT":"Not Applicable","INT_CRIT":"Not Applicable","STATUS":"Designated","STATUS_YR":1979,"GOV_TYPE":"Not Reported","ISO3":"COL"}},
    {"type":"Feature","geometry":{"type":"Point","coordinates":[-75.94999999999993,2.800000000000068]},"properties":{"NAME":"Cinturón Andino Cluster Biosphere Reserve","DESIG_ENG":"UNESCO-MAB Biosphere Reserve","DESIG_TYPE":"International","IUCN_CAT":"Not Applicable","INT_CRIT":"Not Applicable","STATUS":"Designated","STATUS_YR":1979,"GOV_TYPE":"Not Reported","ISO3":"COL"}},
    {"type":"Feature","geometry":{"type":"Point","coordinates":[-74.49999999999994,10.733333000000073]},"properties":{"NAME":"Cienaga Grande de Santa Marta","DESIG_ENG":"UNESCO-MAB Biosphere Reserve","DESIG_TYPE":"International","IUCN_CAT":"Not Applicable","INT_CRIT":"Not Applicable","STATUS":"Designated","STATUS_YR":2000,"GOV_TYPE":"Not Reported","ISO3":"COL"}},
    {"type":"Feature","geometry":{"type":"Point","coordinates":[-81.69999999999993,12.550000000000068]},"properties":{"NAME":"Seaflower","DESIG_ENG":"UNESCO-MAB Biosphere Reserve","DESIG_TYPE":"International","IUCN_CAT":"Not Applicable","INT_CRIT":"Not Applicable","STATUS":"Designated","STATUS_YR":2000,"GOV_TYPE":"Not Reported","ISO3":"COL"}},
    {"type":"Feature","geometry":{"type":"Point","coordinates":[-79.74999999999994,-1.466666666999913]},"properties":{"NAME":"Abras de Mantequilla","DESIG_ENG":"Ramsar Site, Wetland of International Importance","DESIG_TYPE":"International","IUCN_CAT":"Not Reported","INT_CRIT":"(i) (ii) (iii) (iv) (vi) (vii) (viii)","STATUS":"Designated","STATUS_YR":2000,"GOV_TYPE":"Not Reported","ISO3":"ECU"}},
    {"type":"Feature","geometry":{"type":"Point","coordinates":[-80.19999999999993,-0.6999999999999318]},"properties":{"NAME":"La Segua","DESIG_ENG":"Ramsar Site, Wetland of International Importance","DESIG_TYPE":"International","IUCN_CAT":"Not Reported","INT_CRIT":"(i) (iv) (v) (vii) (viii)","STATUS":"Designated","STATUS_YR":2000,"GOV_TYPE":"Not Reported","ISO3":"ECU"}},
    {"type":"Feature","geometry":{"type":"Point","coordinates":[-79.84999999999991,-2.216666666999913]},"properties":{"NAME":"Isla Santay","DESIG_ENG":"Ramsar Site, Wetland of International Importance","DESIG_TYPE":"International","IUCN_CAT":"Not Reported","INT_CRIT":"(ii) (iii) (iv) (vii) (viii)","STATUS":"Designated","STATUS_YR":2000,"GOV_TYPE":"Not Reported","ISO3":"ECU"}},
    {"type":"Feature","geometry":{"type":"Point","coordinates":[-79.64999999999992,0.40000000000009095]},"properties":{"NAME":"Laguna de Cube","DESIG_ENG":"Ramsar Site, Wetland of International Importance","DESIG_TYPE":"International","IUCN_CAT":"Not Reported","INT_CRIT":"(i) (iii)","STATUS":"Designated","STATUS_YR":2002,"GOV_TYPE":"Not Reported","ISO3":"ECU"}},
    {"type":"Feature","geometry":{"type":"Point","coordinates":[-90.96666666699991,-0.9499999999999318]},"properties":{"NAME":"Humedales del Sur de Isabela","DESIG_ENG":"Ramsar Site, Wetland of International Importance","DESIG_TYPE":"International","IUCN_CAT":"Not Reported","INT_CRIT":"(i) (ii) (iii) (iv) (vi) (vii) (viii)","STATUS":"Designated","STATUS_YR":2002,"GOV_TYPE":"Federal or national ministry or agency","ISO3":"ECU"}},
    {"type":"Feature","geometry":{"type":"Point","coordinates":[-78.99999999999994,1.2666666660000487]},"properties":{"NAME":"Reserva Ecológica de Manglares Cayapas-Mataje","DESIG_ENG":"Ramsar Site, Wetland of International Importance","DESIG_TYPE":"International","IUCN_CAT":"Not Reported","INT_CRIT":"(i) (ii) (iii) (iv) (viii)","STATUS":"Designated","STATUS_YR":2003,"GOV_TYPE":"Not Reported","ISO3":"ECU"}},
    {"type":"Feature","geometry":{"type":"Point","coordinates":[-78.14999999999992,-0.26666666599993505]},"properties":{"NAME":"Complejo de Humedales Ñucanchi Turupamba","DESIG_ENG":"Ramsar Site, Wetland of International Importance","DESIG_TYPE":"International","IUCN_CAT":"Not Reported","INT_CRIT":"(i) (ii) (iv)","STATUS":"Designated","STATUS_YR":2006,"GOV_TYPE":"Not Reported","ISO3":"ECU"}},
    {"type":"Feature","geometry":{"type":"Point","coordinates":[-78.34999999999991,-1.099999999999909]},"properties":{"NAME":"Complejo LLanganti","DESIG_ENG":"Ramsar Site, Wetland of International Importance","DESIG_TYPE":"International","IUCN_CAT":"Not Reported","INT_CRIT":"(i) (ii) (iii)","STATUS":"Designated","STATUS_YR":2008,"GOV_TYPE":"Not Reported","ISO3":"ECU"}},
    {"type":"Feature","geometry":{"type":"Point","coordinates":[-77.94527777699994,0.7308333330000778]},"properties":{"NAME":"Reserva Ecológica El Ángel","DESIG_ENG":"Ramsar Site, Wetland of International Importance","DESIG_TYPE":"International","IUCN_CAT":"Not Reported","INT_CRIT":"(i) (ii) (iii) (iv)","STATUS":"Designated","STATUS_YR":2012,"GOV_TYPE":"Not Reported","ISO3":"ECU"}},
    {"type":"Feature","geometry":{"type":"Point","coordinates":[-79.10277777699991,-4.207222221999928]},"properties":{"NAME":"Sistema Lacustre Lagunas del Compadre","DESIG_ENG":"Ramsar Site, Wetland of International Importance","DESIG_TYPE":"International","IUCN_CAT":"Not Reported","INT_CRIT":"(i) (ii) (iii) (iv)","STATUS":"Designated","STATUS_YR":2012,"GOV_TYPE":"Not Reported","ISO3":"ECU"}},
    {"type":"Feature","geometry":{"type":"Point","coordinates":[-79.35333333299991,-4.640833332999932]},"properties":{"NAME":"Sistema Lacustre Yacuri","DESIG_ENG":"Ramsar Site, Wetland of International Importance","DESIG_TYPE":"International","IUCN_CAT":"Not Reported","INT_CRIT":"(i) (ii) (iii) (iv)","STATUS":"Designated","STATUS_YR":2012,"GOV_TYPE":"Not Reported","ISO3":"ECU"}},
    {"type":"Feature","geometry":{"type":"Point","coordinates":[-79.9304666669999,-2.4047555549999515]},"properties":{"NAME":"Manglares del Estuario Interior del Golfo de Guayaquil","DESIG_ENG":"Ramsar Site, Wetland of International Importance","DESIG_TYPE":"International","IUCN_CAT":"Not Reported","INT_CRIT":"(i) (ii) (iii) (iv) (vii) (viii)","STATUS":"Designated","STATUS_YR":2012,"GOV_TYPE":"Not Reported","ISO3":"ECU"}},
    {"type":"Feature","geometry":{"type":"Point","coordinates":[-75.41666666599991,-3.999999999999943]},"properties":{"NAME":"Complejo de humedales del Abanico del río Pastaza","DESIG_ENG":"Ramsar Site, Wetland of International Importance","DESIG_TYPE":"International","IUCN_CAT":"Not Reported","INT_CRIT":"(i) (ii) (iii) (iv) (v) (vi) (vii) (viii)","STATUS":"Designated","STATUS_YR":2002,"GOV_TYPE":"Not Reported","ISO3":"PER"}},
    {"type":"Feature","geometry":{"type":"Point","coordinates":[-71.13333333299994,-16.366666666999947]},"properties":{"NAME":"Bofedales y Laguna de Salinas","DESIG_ENG":"Ramsar Site, Wetland of International Importance","DESIG_TYPE":"International","IUCN_CAT":"Not Reported","INT_CRIT":"(i) (ii) (iii) (iv) (v) (vi) (vii)","STATUS":"Designated","STATUS_YR":2003,"GOV_TYPE":"Not Reported","ISO3":"PER"}},
    {"type":"Feature","geometry":{"type":"Point","coordinates":[-71.0499999999999,-15.766666666999924]},"properties":{"NAME":"Laguna del Indio - Dique de los Españoles","DESIG_ENG":"Ramsar Site, Wetland of International Importance","DESIG_TYPE":"International","IUCN_CAT":"Not Reported","INT_CRIT":"(i) (ii) (iii) (vi) (vii)","STATUS":"Designated","STATUS_YR":2003,"GOV_TYPE":"Not Reported","ISO3":"PER"}},
    {"type":"Feature","geometry":{"type":"Point","coordinates":[-71.7333333329999,-13.616666666999947]},"properties":{"NAME":"Humedal Lucre - Huacarpay","DESIG_ENG":"Ramsar Site, Wetland of International Importance","DESIG_TYPE":"International","IUCN_CAT":"Not Reported","INT_CRIT":"(ii) (iii) (iv)","STATUS":"Designated","STATUS_YR":2006,"GOV_TYPE":"Not Reported","ISO3":"PER"}},
    {"type":"Feature","geometry":{"type":"Point","coordinates":[-79.26666666699992,-5.233333332999905]},"properties":{"NAME":"Lagunas Las Arreviatadas","DESIG_ENG":"Ramsar Site, Wetland of International Importance","DESIG_TYPE":"International","IUCN_CAT":"Not Reported","INT_CRIT":"(i) (ii) (iii)","STATUS":"Designated","STATUS_YR":2007,"GOV_TYPE":"Not Reported","ISO3":"PER"}},
    {"type":"Feature","geometry":{"type":"Point","coordinates":[-71.76666699999993,-12.166666999999904]},"properties":{"NAME":"Reserva de la Biósfera del Manu","DESIG_ENG":"UNESCO-MAB Biosphere Reserve","DESIG_TYPE":"International","IUCN_CAT":"Not Applicable","INT_CRIT":"Not Applicable","STATUS":"Designated","STATUS_YR":1977,"GOV_TYPE":"Not Reported","ISO3":"PER"}},
    {"type":"Feature","geometry":{"type":"Point","coordinates":[-77.46666699999992,-9.749999999999943]},"properties":{"NAME":"Reserva de la Biósfera de Huascarán","DESIG_ENG":"UNESCO-MAB Biosphere Reserve","DESIG_TYPE":"International","IUCN_CAT":"Not Applicable","INT_CRIT":"Not Applicable","STATUS":"Designated","STATUS_YR":1977,"GOV_TYPE":"Not Reported","ISO3":"PER"}},
    {"type":"Feature","geometry":{"type":"Point","coordinates":[-80.24999999999994,-4.866669999999942]},"properties":{"NAME":"Noroeste","DESIG_ENG":"UNESCO-MAB Biosphere Reserve","DESIG_TYPE":"International","IUCN_CAT":"Not Applicable","INT_CRIT":"Not Applicable","STATUS":"Designated","STATUS_YR":1977,"GOV_TYPE":"Not Reported","ISO3":"PER"}},
    {"type":"Feature","geometry":{"type":"Point","coordinates":[-75.16599999999994,-10.582999999999913]},"properties":{"NAME":"Oxapampa - Ashaninka - Yanesha","DESIG_ENG":"UNESCO-MAB Biosphere Reserve","DESIG_TYPE":"International","IUCN_CAT":"Not Applicable","INT_CRIT":"Not Applicable","STATUS":"Designated","STATUS_YR":2010,"GOV_TYPE":"Not Reported","ISO3":"PER"}},
    {"type":"Feature","geometry":{"type":"Point","coordinates":[-56.64999999999992,5.890000000000043]},"properties":{"NAME":"Hertenrits","DESIG_ENG":"Nature Reserve","DESIG_TYPE":"National","IUCN_CAT":"IV","INT_CRIT":"Not Applicable","STATUS":"Designated","STATUS_YR":1972,"GOV_TYPE":"Not Reported","ISO3":"SUR"}},
    {"type":"Feature","geometry":{"type":"Point","coordinates":[-58.13899999999995,-33.287999999999954]},"properties":{"NAME":"Bosques del Río Negro","DESIG_ENG":"National Park","DESIG_TYPE":"National","IUCN_CAT":"Not Reported","INT_CRIT":"Not Applicable","STATUS":"Proposed","STATUS_YR":2010,"GOV_TYPE":"Not Reported","ISO3":"URY"}},
    {"type":"Feature","geometry":{"type":"Point","coordinates":[-53.99999999999994,-33.49999999999994]},"properties":{"NAME":"Bañados del Este","DESIG_ENG":"UNESCO-MAB Biosphere Reserve","DESIG_TYPE":"International","IUCN_CAT":"Not Applicable","INT_CRIT":"Not Applicable","STATUS":"Designated","STATUS_YR":1976,"GOV_TYPE":"Not Reported","ISO3":"URY"}},
    {"type":"Feature","geometry":{"type":"Point","coordinates":[-55.26019999999994,-34.28359999999992]},"properties":{"NAME":"Arequita","DESIG_ENG":"National Park","DESIG_TYPE":"National","IUCN_CAT":"Not Reported","INT_CRIT":"Not Applicable","STATUS":"Designated","STATUS_YR":1954,"GOV_TYPE":"Not Reported","ISO3":"URY"}},
    {"type":"Feature","geometry":{"type":"Point","coordinates":[-53.90089999999992,-34.32229999999993]},"properties":{"NAME":"Laguna de Castillos","DESIG_ENG":"Protected Landscape","DESIG_TYPE":"National","IUCN_CAT":"Not Reported","INT_CRIT":"Not Applicable","STATUS":"Designated","STATUS_YR":1966,"GOV_TYPE":"Not Reported","ISO3":"URY"}},
    {"type":"Feature","geometry":{"type":"Point","coordinates":[-54.55299999999994,-34.78849999999994]},"properties":{"NAME":"Laguna Garzón","DESIG_ENG":"Protected Landscape","DESIG_TYPE":"National","IUCN_CAT":"Not Reported","INT_CRIT":"Not Applicable","STATUS":"Designated","STATUS_YR":1977,"GOV_TYPE":"Not Reported","ISO3":"URY"}},
    {"type":"Feature","geometry":{"type":"Point","coordinates":[-53.659599999999955,-34.00899999999996]},"properties":{"NAME":"Laguna Negra","DESIG_ENG":"Protected Landscape","DESIG_TYPE":"National","IUCN_CAT":"Not Reported","INT_CRIT":"Not Applicable","STATUS":"Designated","STATUS_YR":1992,"GOV_TYPE":"Not Reported","ISO3":"URY"}},
    {"type":"Feature","geometry":{"type":"Point","coordinates":[-53.788199999999904,-32.23229999999995]},"properties":{"NAME":"Paso Centurión","DESIG_ENG":"Managed Protected Area Resources","DESIG_TYPE":"National","IUCN_CAT":"Not Reported","INT_CRIT":"Not Applicable","STATUS":"Designated","STATUS_YR":2010,"GOV_TYPE":"Not Reported","ISO3":"URY"}},
    {"type":"Feature","geometry":{"type":"Point","coordinates":[-66.74999999999994,11.833333334000088]},"properties":{"NAME":"Archipielago Los Roques","DESIG_ENG":"Ramsar Site, Wetland of International Importance","DESIG_TYPE":"International","IUCN_CAT":"Not Reported","INT_CRIT":"(i) (ii) (iii) (vii) (viii)","STATUS":"Designated","STATUS_YR":1996,"GOV_TYPE":"Not Reported","ISO3":"VEN"}},
    {"type":"Feature","geometry":{"type":"Point","coordinates":[-64.14999999999992,11.033333334000076]},"properties":{"NAME":"Laguna de la Restinga","DESIG_ENG":"Ramsar Site, Wetland of International Importance","DESIG_TYPE":"International","IUCN_CAT":"Not Reported","INT_CRIT":"(i) (ii) (iii) (iv) (vii)","STATUS":"Designated","STATUS_YR":1996,"GOV_TYPE":"Not Reported","ISO3":"VEN"}},
    {"type":"Feature","geometry":{"type":"Point","coordinates":[-65.93333333299995,10.200000000000045]},"properties":{"NAME":"Laguna de Tacarigua","DESIG_ENG":"Ramsar Site, Wetland of International Importance","DESIG_TYPE":"International","IUCN_CAT":"Not Reported","INT_CRIT":"(i) (ii) (iii) (iv) (v) (vi) (vii)","STATUS":"Designated","STATUS_YR":1996,"GOV_TYPE":"Not Reported","ISO3":"VEN"}},
    {"type":"Feature","geometry":{"type":"Point","coordinates":[-66.24999999999994,10.46670000000006]},"properties":{"NAME":"Cueva Alfredo Jahn","DESIG_ENG":"Natural Monument","DESIG_TYPE":"National","IUCN_CAT":"III","INT_CRIT":"Not Applicable","STATUS":"Designated","STATUS_YR":1978,"GOV_TYPE":"Not Reported","ISO3":"VEN"}},
    {"type":"Feature","geometry":{"type":"Point","coordinates":[-63.53329999999994,10.166700000000048]},"properties":{"NAME":"Cueva del Guácharo (Alejandro de Humboldt)","DESIG_ENG":"Natural Monument","DESIG_TYPE":"National","IUCN_CAT":"III","INT_CRIT":"Not Applicable","STATUS":"Designated","STATUS_YR":1949,"GOV_TYPE":"Not Reported","ISO3":"VEN"}},
    {"type":"Feature","geometry":{"type":"Point","coordinates":[-66.7666999999999,1.2333000000000425]},"properties":{"NAME":"Piedra de Cocuy","DESIG_ENG":"Natural Monument","DESIG_TYPE":"National","IUCN_CAT":"III","INT_CRIT":"Not Applicable","STATUS":"Designated","STATUS_YR":1978,"GOV_TYPE":"Not Reported","ISO3":"VEN"}},
    {"type":"Feature","geometry":{"type":"Point","coordinates":[-67.11666699999995,9.950000000000045]},"properties":{"NAME":"Lago de Valencia","DESIG_ENG":"Critical Priority Area","DESIG_TYPE":"National","IUCN_CAT":"Not Reported","INT_CRIT":"Not Applicable","STATUS":"Designated","STATUS_YR":1979,"GOV_TYPE":"Not Reported","ISO3":"VEN"}},
    {"type":"Feature","geometry":{"type":"Point","coordinates":[-71.4166669999999,10.283333000000084]},"properties":{"NAME":"Burro Negro","DESIG_ENG":"Hydrological Reserve","DESIG_TYPE":"National","IUCN_CAT":"Not Reported","INT_CRIT":"Not Applicable","STATUS":"Designated","STATUS_YR":1974,"GOV_TYPE":"Not Reported","ISO3":"VEN"}},
    {"type":"Feature","geometry":{"type":"Point","coordinates":[-69.21669999999995,9.550000000000068]},"properties":{"NAME":"Mitar-Nakichenovich","DESIG_ENG":"Protective Zone","DESIG_TYPE":"National","IUCN_CAT":"V","INT_CRIT":"Not Applicable","STATUS":"Designated","STATUS_YR":1970,"GOV_TYPE":"Not Reported","ISO3":"VEN"}},
    {"type":"Feature","geometry":{"type":"Point","coordinates":[-69.61666699999995,9.666667000000075]},"properties":{"NAME":"Río Yacambú","DESIG_ENG":"Protective Zone","DESIG_TYPE":"National","IUCN_CAT":"V","INT_CRIT":"Not Applicable","STATUS":"Designated","STATUS_YR":1974,"GOV_TYPE":"Not Reported","ISO3":"VEN"}},
    {"type":"Feature","geometry":{"type":"Point","coordinates":[-71.49999999999994,8.033300000000054]},"properties":{"NAME":"Sureste del Lago de Maracaibo-Uribante-Caparo","DESIG_ENG":"Protective Zone","DESIG_TYPE":"National","IUCN_CAT":"V","INT_CRIT":"Not Applicable","STATUS":"Designated","STATUS_YR":1974,"GOV_TYPE":"Not Reported","ISO3":"VEN"}},
    {"type":"Feature","geometry":{"type":"Point","coordinates":[-72.0499999999999,7.250000000000057]},"properties":{"NAME":"Distrito Páez del Estado Apure","DESIG_ENG":"Hydrological Reserve","DESIG_TYPE":"National","IUCN_CAT":"Not Reported","INT_CRIT":"Not Applicable","STATUS":"Designated","STATUS_YR":1981,"GOV_TYPE":"Not Reported","ISO3":"VEN"}},
    {"type":"Feature","geometry":{"type":"Point","coordinates":[-71.99999999999994,8.750000000000057]},"properties":{"NAME":"Zona Sur de Lago de Maracaibo","DESIG_ENG":"Hydrological Reserve","DESIG_TYPE":"National","IUCN_CAT":"Not Reported","INT_CRIT":"Not Applicable","STATUS":"Designated","STATUS_YR":1974,"GOV_TYPE":"Not Reported","ISO3":"VEN"}},
    {"type":"Feature","geometry":{"type":"Point","coordinates":[-68.14999999999992,10.400000000000091]},"properties":{"NAME":"Río Sanchón","DESIG_ENG":"Hydrological Reserve","DESIG_TYPE":"National","IUCN_CAT":"Not Reported","INT_CRIT":"Not Applicable","STATUS":"Designated","STATUS_YR":1976,"GOV_TYPE":"Not Reported","ISO3":"VEN"}},
    {"type":"Feature","geometry":{"type":"Point","coordinates":[-64.24999999999994,9.500000000000057]},"properties":{"NAME":"Río Capravera","DESIG_ENG":"Hydrological Reserve","DESIG_TYPE":"National","IUCN_CAT":"Not Reported","INT_CRIT":"Not Applicable","STATUS":"Designated","STATUS_YR":1978,"GOV_TYPE":"Not Reported","ISO3":"VEN"}},
    {"type":"Feature","geometry":{"type":"Point","coordinates":[-63.49999999999994,9.85000000000008]},"properties":{"NAME":"Distritos Maturín, Cedeño, Acosta, Piar","DESIG_ENG":"Hydrological Reserve","DESIG_TYPE":"National","IUCN_CAT":"Not Reported","INT_CRIT":"Not Applicable","STATUS":"Designated","STATUS_YR":1976,"GOV_TYPE":"Not Reported","ISO3":"VEN"}},
    {"type":"Feature","geometry":{"type":"Point","coordinates":[-70.24999999999994,10.88333300000005]},"properties":{"NAME":"Río Pedregal","DESIG_ENG":"Hydrological Reserve","DESIG_TYPE":"National","IUCN_CAT":"Not Reported","INT_CRIT":"Not Applicable","STATUS":"Designated","STATUS_YR":1976,"GOV_TYPE":"Not Reported","ISO3":"VEN"}},
    {"type":"Feature","geometry":{"type":"Point","coordinates":[-69.58333299999993,9.966667000000086]},"properties":{"NAME":"Región Valle de Quibor","DESIG_ENG":"Hydrological Reserve","DESIG_TYPE":"National","IUCN_CAT":"Not Reported","INT_CRIT":"Not Applicable","STATUS":"Designated","STATUS_YR":1974,"GOV_TYPE":"Not Reported","ISO3":"VEN"}},
    {"type":"Feature","geometry":{"type":"Point","coordinates":[-69.74999999999994,8.666667000000075]},"properties":{"NAME":"Piedemonte Andino","DESIG_ENG":"Hydrological Reserve","DESIG_TYPE":"National","IUCN_CAT":"Not Reported","INT_CRIT":"Not Applicable","STATUS":"Designated","STATUS_YR":1974,"GOV_TYPE":"Not Reported","ISO3":"VEN"}},
    {"type":"Feature","geometry":{"type":"Point","coordinates":[-66.98300199999994,11.93300000000005]},"properties":{"NAME":"Valle del Algodonal","DESIG_ENG":"Protective Zone","DESIG_TYPE":"National","IUCN_CAT":"V","INT_CRIT":"Not Applicable","STATUS":"Designated","STATUS_YR":1976,"GOV_TYPE":"Not Reported","ISO3":"VEN"}},
    {"type":"Feature","geometry":{"type":"Point","coordinates":[-67.31669999999991,10.416700000000048]},"properties":{"NAME":"Pico Codazzi","DESIG_ENG":"Natural Monument","DESIG_TYPE":"National","IUCN_CAT":"III","INT_CRIT":"Not Applicable","STATUS":"Designated","STATUS_YR":1991,"GOV_TYPE":"Not Reported","ISO3":"VEN"}},
    {"type":"Feature","geometry":{"type":"Point","coordinates":[-69.61669999999992,11.300000000000068]},"properties":{"NAME":"de la Ciudad de Coro","DESIG_ENG":"Protective Zone","DESIG_TYPE":"National","IUCN_CAT":"V","INT_CRIT":"Not Applicable","STATUS":"Designated","STATUS_YR":1987,"GOV_TYPE":"Not Reported","ISO3":"VEN"}},
    {"type":"Feature","geometry":{"type":"Point","coordinates":[-64.08299999999991,11.000000000000057]},"properties":{"NAME":"Cabos, Puntas y Lagunas de Isla de Margarita","DESIG_ENG":"Protective Zone","DESIG_TYPE":"National","IUCN_CAT":"V","INT_CRIT":"Not Applicable","STATUS":"Designated","STATUS_YR":1988,"GOV_TYPE":"Not Reported","ISO3":"VEN"}},
    {"type":"Feature","geometry":{"type":"Point","coordinates":[-65.08333299999993,9.500000000000057]},"properties":{"NAME":"Cuenca de Unare","DESIG_ENG":"Rural Development Area","DESIG_TYPE":"National","IUCN_CAT":"Not Reported","INT_CRIT":"Not Applicable","STATUS":"Designated","STATUS_YR":1985,"GOV_TYPE":"Not Reported","ISO3":"VEN"}},
    {"type":"Feature","geometry":{"type":"Point","coordinates":[-68.83333299999993,7.666667000000075]},"properties":{"NAME":"Módulos de Apure","DESIG_ENG":"Rural Development Area","DESIG_TYPE":"National","IUCN_CAT":"Not Reported","INT_CRIT":"Not Applicable","STATUS":"Designated","STATUS_YR":1974,"GOV_TYPE":"Not Reported","ISO3":"VEN"}},
    {"type":"Feature","geometry":{"type":"Point","coordinates":[-63.333332999999925,9.833333000000039]},"properties":{"NAME":"Valle del Río Guarapiche","DESIG_ENG":"Rural Development Area","DESIG_TYPE":"National","IUCN_CAT":"Not Reported","INT_CRIT":"Not Applicable","STATUS":"Designated","STATUS_YR":1976,"GOV_TYPE":"Not Reported","ISO3":"VEN"}},
    {"type":"Feature","geometry":{"type":"Point","coordinates":[-62.716666999999916,8.833333000000039]},"properties":{"NAME":"Mesa de Guanipa","DESIG_ENG":"Critical Priority Area","DESIG_TYPE":"National","IUCN_CAT":"Not Reported","INT_CRIT":"Not Applicable","STATUS":"Designated","STATUS_YR":1978,"GOV_TYPE":"Not Reported","ISO3":"VEN"}},
    {"type":"Feature","geometry":{"type":"Point","coordinates":[-67.58333299999993,8.833333000000039]},"properties":{"NAME":"Acuífero de Calabozo","DESIG_ENG":"Critical Priority Area","DESIG_TYPE":"National","IUCN_CAT":"Not Reported","INT_CRIT":"Not Applicable","STATUS":"Designated","STATUS_YR":1978,"GOV_TYPE":"Not Reported","ISO3":"VEN"}},
    {"type":"Feature","geometry":{"type":"Point","coordinates":[-67.6666669999999,10.000000000000057]},"properties":{"NAME":"Cuenca del Lago de Valencia","DESIG_ENG":"Critical Priority Area","DESIG_TYPE":"National","IUCN_CAT":"Not Reported","INT_CRIT":"Not Applicable","STATUS":"Designated","STATUS_YR":1979,"GOV_TYPE":"Not Reported","ISO3":"VEN"}},
    {"type":"Feature","geometry":{"type":"Point","coordinates":[-71.99999999999994,11.000000000000057]},"properties":{"NAME":"Distrito Mara","DESIG_ENG":"Zone of Agricultural Development","DESIG_TYPE":"National","IUCN_CAT":"Not Reported","INT_CRIT":"Not Applicable","STATUS":"Designated","STATUS_YR":1981,"GOV_TYPE":"Not Reported","ISO3":"VEN"}},
    {"type":"Feature","geometry":{"type":"Point","coordinates":[-72.33333299999993,7.833333000000039]},"properties":{"NAME":"Peribeca (Edo.Tachira)","DESIG_ENG":"Zone of Agricultural Development","DESIG_TYPE":"National","IUCN_CAT":"Not Reported","INT_CRIT":"Not Applicable","STATUS":"Designated","STATUS_YR":1980,"GOV_TYPE":"Not Reported","ISO3":"VEN"}},
    {"type":"Feature","geometry":{"type":"Point","coordinates":[-68.6666669999999,10.166667000000075]},"properties":{"NAME":"Depresión Turbio-Yaracuy","DESIG_ENG":"Zone of Agricultural Development","DESIG_TYPE":"National","IUCN_CAT":"Not Reported","INT_CRIT":"Not Applicable","STATUS":"Designated","STATUS_YR":1982,"GOV_TYPE":"Not Reported","ISO3":"VEN"}},
    {"type":"Feature","geometry":{"type":"Point","coordinates":[-65.99999999999994,10.333333000000039]},"properties":{"NAME":"Barlovento (Edo. Miranda)","DESIG_ENG":"Zone of Agricultural Development","DESIG_TYPE":"National","IUCN_CAT":"Not Reported","INT_CRIT":"Not Applicable","STATUS":"Designated","STATUS_YR":1982,"GOV_TYPE":"Not Reported","ISO3":"VEN"}},
    {"type":"Feature","geometry":{"type":"Point","coordinates":[-66.69999999999993,10.000000000000057]},"properties":{"NAME":"Depresión de Quibor (Edo. Lara)","DESIG_ENG":"Zone of Agricultural Development","DESIG_TYPE":"National","IUCN_CAT":"Not Reported","INT_CRIT":"Not Applicable","STATUS":"Designated","STATUS_YR":1982,"GOV_TYPE":"Not Reported","ISO3":"VEN"}},
    {"type":"Feature","geometry":{"type":"Point","coordinates":[-68.99999999999994,10.750000000000057]},"properties":{"NAME":"Valle del Río Aroa","DESIG_ENG":"Rural Development Area","DESIG_TYPE":"National","IUCN_CAT":"Not Reported","INT_CRIT":"Not Applicable","STATUS":"Designated","STATUS_YR":1980,"GOV_TYPE":"Not Reported","ISO3":"VEN"}},
    {"type":"Feature","geometry":{"type":"Point","coordinates":[-63.883332999999936,11.083333000000039]},"properties":{"NAME":"Valle de Atamo","DESIG_ENG":"Rural Development Area","DESIG_TYPE":"National","IUCN_CAT":"Not Reported","INT_CRIT":"Not Applicable","STATUS":"Designated","STATUS_YR":1987,"GOV_TYPE":"Not Reported","ISO3":"VEN"}},
    {"type":"Feature","geometry":{"type":"Point","coordinates":[-61.916666999999904,8.033333000000084]},"properties":{"NAME":"El Palmar y Alfredo","DESIG_ENG":"Rural Development Area","DESIG_TYPE":"National","IUCN_CAT":"Not Reported","INT_CRIT":"Not Applicable","STATUS":"Designated","STATUS_YR":1987,"GOV_TYPE":"Not Reported","ISO3":"VEN"}},
    {"type":"Feature","geometry":{"type":"Point","coordinates":[-71.6666669999999,8.35000000000008]},"properties":{"NAME":"Meseta La Galera","DESIG_ENG":"Natural Monument","DESIG_TYPE":"National","IUCN_CAT":"III","INT_CRIT":"Not Applicable","STATUS":"Designated","STATUS_YR":1992,"GOV_TYPE":"Not Reported","ISO3":"VEN"}},
    {"type":"Feature","geometry":{"type":"Point","coordinates":[-67.58329999999995,5.566700000000083]},"properties":{"NAME":"Piedra La Tortuga","DESIG_ENG":"Natural Monument","DESIG_TYPE":"National","IUCN_CAT":"III","INT_CRIT":"Not Applicable","STATUS":"Designated","STATUS_YR":1992,"GOV_TYPE":"Not Reported","ISO3":"VEN"}},
    {"type":"Feature","geometry":{"type":"Point","coordinates":[-67.5499999999999,5.550000000000068]},"properties":{"NAME":"Piedra Pintada","DESIG_ENG":"Natural Monument","DESIG_TYPE":"National","IUCN_CAT":"III","INT_CRIT":"Not Applicable","STATUS":"Designated","STATUS_YR":1992,"GOV_TYPE":"Not Reported","ISO3":"VEN"}},
    {"type":"Feature","geometry":{"type":"Point","coordinates":[-61.49999999999994,9.416700000000048]},"properties":{"NAME":"Delta del Orinoco","DESIG_ENG":"National Park","DESIG_TYPE":"National","IUCN_CAT":"II","INT_CRIT":"Not Applicable","STATUS":"Designated","STATUS_YR":1992,"GOV_TYPE":"Not Reported","ISO3":"VEN"}},
    {"type":"Feature","geometry":{"type":"Point","coordinates":[-69.49999999999994,9.750000000000057]},"properties":{"NAME":"El Guache","DESIG_ENG":"National Park","DESIG_TYPE":"National","IUCN_CAT":"II","INT_CRIT":"Not Applicable","STATUS":"Designated","STATUS_YR":1992,"GOV_TYPE":"Not Reported","ISO3":"VEN"}},
    {"type":"Feature","geometry":{"type":"Point","coordinates":[-68.7999999999999,10.083333000000039]},"properties":{"NAME":"Tirgua","DESIG_ENG":"National Park","DESIG_TYPE":"National","IUCN_CAT":"II","INT_CRIT":"Not Applicable","STATUS":"Designated","STATUS_YR":1992,"GOV_TYPE":"Not Reported","ISO3":"VEN"}},
    {"type":"Feature","geometry":{"type":"Point","coordinates":[-62.333332999999925,10.333333000000039]},"properties":{"NAME":"Golfo de Paría","DESIG_ENG":"Other Area","DESIG_TYPE":"National","IUCN_CAT":"Not Reported","INT_CRIT":"Not Applicable","STATUS":"Proposed","STATUS_YR":0,"GOV_TYPE":"Not Reported","ISO3":"VEN"}},
    {"type":"Feature","geometry":{"type":"Point","coordinates":[-65.19999999999993,8.733333000000073]},"properties":{"NAME":"Laguna de Unare","DESIG_ENG":"Other Area","DESIG_TYPE":"National","IUCN_CAT":"Not Reported","INT_CRIT":"Not Applicable","STATUS":"Proposed","STATUS_YR":0,"GOV_TYPE":"Not Reported","ISO3":"VEN"}},
    {"type":"Feature","geometry":{"type":"Point","coordinates":[-63.99999999999994,10.500000000000057]},"properties":{"NAME":"Golfo de Cariaco","DESIG_ENG":"Other Area","DESIG_TYPE":"National","IUCN_CAT":"Not Reported","INT_CRIT":"Not Applicable","STATUS":"Proposed","STATUS_YR":0,"GOV_TYPE":"Not Reported","ISO3":"VEN"}},
    {"type":"Feature","geometry":{"type":"Point","coordinates":[-71.9166669999999,11.166667000000075]},"properties":{"NAME":"El Gran Eneal","DESIG_ENG":"Other Area","DESIG_TYPE":"National","IUCN_CAT":"Not Reported","INT_CRIT":"Not Applicable","STATUS":"Proposed","STATUS_YR":0,"GOV_TYPE":"Not Reported","ISO3":"VEN"}},
    {"type":"Feature","geometry":{"type":"Point","coordinates":[-72.31666699999994,7.583333000000039]},"properties":{"NAME":"Páramo Las Lajas","DESIG_ENG":"Forest Area under Protection","DESIG_TYPE":"National","IUCN_CAT":"VI","INT_CRIT":"Not Applicable","STATUS":"Designated","STATUS_YR":1991,"GOV_TYPE":"Not Reported","ISO3":"VEN"}},
    {"type":"Feature","geometry":{"type":"Point","coordinates":[-60.99999999999994,8.833000000000084]},"properties":{"NAME":"Merejina","DESIG_ENG":"Forest Area under Protection","DESIG_TYPE":"National","IUCN_CAT":"VI","INT_CRIT":"Not Applicable","STATUS":"Designated","STATUS_YR":1992,"GOV_TYPE":"Not Reported","ISO3":"VEN"}},
    {"type":"Feature","geometry":{"type":"Point","coordinates":[-67.69999999999993,8.683333000000061]},"properties":{"NAME":"Tiznados","DESIG_ENG":"Forest Area under Protection","DESIG_TYPE":"National","IUCN_CAT":"VI","INT_CRIT":"Not Applicable","STATUS":"Designated","STATUS_YR":1992,"GOV_TYPE":"Not Reported","ISO3":"VEN"}},
    {"type":"Feature","geometry":{"type":"Point","coordinates":[-67.86666699999995,9.000000000000057]},"properties":{"NAME":"Pueblito","DESIG_ENG":"Forest Area under Protection","DESIG_TYPE":"National","IUCN_CAT":"VI","INT_CRIT":"Not Applicable","STATUS":"Designated","STATUS_YR":1992,"GOV_TYPE":"Not Reported","ISO3":"VEN"}},
    {"type":"Feature","geometry":{"type":"Point","coordinates":[-68.68333299999995,7.366667000000064]},"properties":{"NAME":"Río Orichuna","DESIG_ENG":"Forest Area under Protection","DESIG_TYPE":"National","IUCN_CAT":"VI","INT_CRIT":"Not Applicable","STATUS":"Designated","STATUS_YR":1992,"GOV_TYPE":"Not Reported","ISO3":"VEN"}},
    {"type":"Feature","geometry":{"type":"Point","coordinates":[-68.44999999999993,7.6833330000000615]},"properties":{"NAME":"El Yagual","DESIG_ENG":"Forest Area under Protection","DESIG_TYPE":"National","IUCN_CAT":"VI","INT_CRIT":"Not Applicable","STATUS":"Designated","STATUS_YR":1992,"GOV_TYPE":"Not Reported","ISO3":"VEN"}},
    {"type":"Feature","geometry":{"type":"Point","coordinates":[-67.4166669999999,8.183333000000061]},"properties":{"NAME":"Márgenes del Río Guárico","DESIG_ENG":"Forest Area under Protection","DESIG_TYPE":"National","IUCN_CAT":"VI","INT_CRIT":"Not Applicable","STATUS":"Designated","STATUS_YR":1992,"GOV_TYPE":"Not Reported","ISO3":"VEN"}},
    {"type":"Feature","geometry":{"type":"Point","coordinates":[-68.2333329999999,7.63333300000005]},"properties":{"NAME":"Achaguas","DESIG_ENG":"Forest Area under Protection","DESIG_TYPE":"National","IUCN_CAT":"VI","INT_CRIT":"Not Applicable","STATUS":"Designated","STATUS_YR":1992,"GOV_TYPE":"Not Reported","ISO3":"VEN"}},
    {"type":"Feature","geometry":{"type":"Point","coordinates":[-69.83333299999993,8.000000000000057]},"properties":{"NAME":"Santo Domingo","DESIG_ENG":"Forest Area under Protection","DESIG_TYPE":"National","IUCN_CAT":"VI","INT_CRIT":"Not Applicable","STATUS":"Designated","STATUS_YR":1992,"GOV_TYPE":"Not Reported","ISO3":"VEN"}},
    {"type":"Feature","geometry":{"type":"Point","coordinates":[-66.18333299999995,9.10000000000008]},"properties":{"NAME":"Río Orituco","DESIG_ENG":"Forest Area under Protection","DESIG_TYPE":"National","IUCN_CAT":"VI","INT_CRIT":"Not Applicable","STATUS":"Designated","STATUS_YR":1992,"GOV_TYPE":"Not Reported","ISO3":"VEN"}},
    {"type":"Feature","geometry":{"type":"Point","coordinates":[-68.68333299999995,7.366667000000064]},"properties":{"NAME":"Río Apure-Capanaparo","DESIG_ENG":"Forest Area under Protection","DESIG_TYPE":"National","IUCN_CAT":"VI","INT_CRIT":"Not Applicable","STATUS":"Designated","STATUS_YR":1992,"GOV_TYPE":"Not Reported","ISO3":"VEN"}},
    {"type":"Feature","geometry":{"type":"Point","coordinates":[-64.08333299999993,9.233333000000073]},"properties":{"NAME":"Río Guanipa","DESIG_ENG":"Forest Area under Protection","DESIG_TYPE":"National","IUCN_CAT":"VI","INT_CRIT":"Not Applicable","STATUS":"Designated","STATUS_YR":1992,"GOV_TYPE":"Not Reported","ISO3":"VEN"}},
    {"type":"Feature","geometry":{"type":"Point","coordinates":[-63.916666999999904,7.233333000000073]},"properties":{"NAME":"San Francisco de la Paragua","DESIG_ENG":"Forest Area under Protection","DESIG_TYPE":"National","IUCN_CAT":"VI","INT_CRIT":"Not Applicable","STATUS":"Designated","STATUS_YR":1992,"GOV_TYPE":"Not Reported","ISO3":"VEN"}},
    {"type":"Feature","geometry":{"type":"Point","coordinates":[-68.99999999999994,10.500000000000057]},"properties":{"NAME":"Nirgua-Aroa","DESIG_ENG":"Forest Area under Protection","DESIG_TYPE":"National","IUCN_CAT":"VI","INT_CRIT":"Not Applicable","STATUS":"Designated","STATUS_YR":1992,"GOV_TYPE":"Not Reported","ISO3":"VEN"}},
    {"type":"Feature","geometry":{"type":"Point","coordinates":[-68.44999999999993,9.13333300000005]},"properties":{"NAME":"Libertad","DESIG_ENG":"Forest Area under Protection","DESIG_TYPE":"National","IUCN_CAT":"VI","INT_CRIT":"Not Applicable","STATUS":"Designated","STATUS_YR":1992,"GOV_TYPE":"Not Reported","ISO3":"VEN"}},
    {"type":"Feature","geometry":{"type":"Point","coordinates":[-67.26666699999993,8.26666700000004]},"properties":{"NAME":"Caño Caballo","DESIG_ENG":"Forest Area under Protection","DESIG_TYPE":"National","IUCN_CAT":"VI","INT_CRIT":"Not Applicable","STATUS":"Designated","STATUS_YR":1992,"GOV_TYPE":"Not Reported","ISO3":"VEN"}},
    {"type":"Feature","geometry":{"type":"Point","coordinates":[-68.18333299999995,9.183333000000061]},"properties":{"NAME":"El Baúl-Corralito","DESIG_ENG":"Forest Area under Protection","DESIG_TYPE":"National","IUCN_CAT":"VI","INT_CRIT":"Not Applicable","STATUS":"Designated","STATUS_YR":1992,"GOV_TYPE":"Not Reported","ISO3":"VEN"}},
    {"type":"Feature","geometry":{"type":"Point","coordinates":[-69.49999999999994,9.000000000000057]},"properties":{"NAME":"Botucal","DESIG_ENG":"Forest Area under Protection","DESIG_TYPE":"National","IUCN_CAT":"VI","INT_CRIT":"Not Applicable","STATUS":"Designated","STATUS_YR":1992,"GOV_TYPE":"Not Reported","ISO3":"VEN"}},
    {"type":"Feature","geometry":{"type":"Point","coordinates":[-69.36666699999995,11.000000000000057]},"properties":{"NAME":"Río de los Remedios","DESIG_ENG":"Forest Area under Protection","DESIG_TYPE":"National","IUCN_CAT":"VI","INT_CRIT":"Not Applicable","STATUS":"Designated","STATUS_YR":1992,"GOV_TYPE":"Not Reported","ISO3":"VEN"}},
    {"type":"Feature","geometry":{"type":"Point","coordinates":[-69.49999999999994,8.816667000000052]},"properties":{"NAME":"Delgadito","DESIG_ENG":"Forest Area under Protection","DESIG_TYPE":"National","IUCN_CAT":"VI","INT_CRIT":"Not Applicable","STATUS":"Designated","STATUS_YR":1992,"GOV_TYPE":"Not Reported","ISO3":"VEN"}},
    {"type":"Feature","geometry":{"type":"Point","coordinates":[-66.9166669999999,9.550000000000068]},"properties":{"NAME":"Barbacas","DESIG_ENG":"Forest Area under Protection","DESIG_TYPE":"National","IUCN_CAT":"VI","INT_CRIT":"Not Applicable","STATUS":"Designated","STATUS_YR":1992,"GOV_TYPE":"Not Reported","ISO3":"VEN"}},
    {"type":"Feature","geometry":{"type":"Point","coordinates":[-69.14999999999992,8.366667000000064]},"properties":{"NAME":"El Clavo","DESIG_ENG":"Forest Area under Protection","DESIG_TYPE":"National","IUCN_CAT":"VI","INT_CRIT":"Not Applicable","STATUS":"Designated","STATUS_YR":1992,"GOV_TYPE":"Not Reported","ISO3":"VEN"}},
    {"type":"Feature","geometry":{"type":"Point","coordinates":[-64.83333299999993,9.166667000000075]},"properties":{"NAME":"Río Arauca-Guere","DESIG_ENG":"Forest Area under Protection","DESIG_TYPE":"National","IUCN_CAT":"VI","INT_CRIT":"Not Applicable","STATUS":"Designated","STATUS_YR":1992,"GOV_TYPE":"Not Reported","ISO3":"VEN"}},
    {"type":"Feature","geometry":{"type":"Point","coordinates":[-67.68333299999995,7.866667000000064]},"properties":{"NAME":"San Fernando","DESIG_ENG":"Forest Area under Protection","DESIG_TYPE":"National","IUCN_CAT":"VI","INT_CRIT":"Not Applicable","STATUS":"Designated","STATUS_YR":1992,"GOV_TYPE":"Not Reported","ISO3":"VEN"}},
    {"type":"Feature","geometry":{"type":"Point","coordinates":[-72.86666699999995,9.866667000000064]},"properties":{"NAME":"Río Aricuaisa","DESIG_ENG":"Forest Area under Protection","DESIG_TYPE":"National","IUCN_CAT":"VI","INT_CRIT":"Not Applicable","STATUS":"Designated","STATUS_YR":1992,"GOV_TYPE":"Not Reported","ISO3":"VEN"}},
    {"type":"Feature","geometry":{"type":"Point","coordinates":[-65.99999999999994,6.000000000000057]},"properties":{"NAME":"Chivapure - Cuchivero","DESIG_ENG":"Forest Area under Protection","DESIG_TYPE":"National","IUCN_CAT":"VI","INT_CRIT":"Not Applicable","STATUS":"Designated","STATUS_YR":1992,"GOV_TYPE":"Not Reported","ISO3":"VEN"}},
    {"type":"Feature","geometry":{"type":"Point","coordinates":[-72.59999999999991,9.10000000000008]},"properties":{"NAME":"Río Tarra","DESIG_ENG":"Forest Area under Protection","DESIG_TYPE":"National","IUCN_CAT":"VI","INT_CRIT":"Not Applicable","STATUS":"Designated","STATUS_YR":1992,"GOV_TYPE":"Not Reported","ISO3":"VEN"}},
    {"type":"Feature","geometry":{"type":"Point","coordinates":[-68.53333299999991,9.533333000000084]},"properties":{"NAME":"El Amparo","DESIG_ENG":"Forest Area under Protection","DESIG_TYPE":"National","IUCN_CAT":"VI","INT_CRIT":"Not Applicable","STATUS":"Designated","STATUS_YR":1992,"GOV_TYPE":"Not Reported","ISO3":"VEN"}},
    {"type":"Feature","geometry":{"type":"Point","coordinates":[-72.31666699999994,9.783333000000084]},"properties":{"NAME":"Santa Rosa","DESIG_ENG":"Forest Area under Protection","DESIG_TYPE":"National","IUCN_CAT":"VI","INT_CRIT":"Not Applicable","STATUS":"Designated","STATUS_YR":1992,"GOV_TYPE":"Not Reported","ISO3":"VEN"}},
    {"type":"Feature","geometry":{"type":"Point","coordinates":[-70.68333299999995,10.63333300000005]},"properties":{"NAME":"Ríos Maticora y Cocuiza","DESIG_ENG":"Forest Area under Protection","DESIG_TYPE":"National","IUCN_CAT":"VI","INT_CRIT":"Not Applicable","STATUS":"Designated","STATUS_YR":1992,"GOV_TYPE":"Not Reported","ISO3":"VEN"}},
    {"type":"Feature","geometry":{"type":"Point","coordinates":[-62.133332999999936,10.000000000000057]},"properties":{"NAME":"Pedernales","DESIG_ENG":"Forest Area under Protection","DESIG_TYPE":"National","IUCN_CAT":"VI","INT_CRIT":"Not Applicable","STATUS":"Designated","STATUS_YR":1992,"GOV_TYPE":"Not Reported","ISO3":"VEN"}},
    {"type":"Feature","geometry":{"type":"Point","coordinates":[-61.86666699999995,7.4500000000000455]},"properties":{"NAME":"El Chocó","DESIG_ENG":"Forest Area under Protection","DESIG_TYPE":"National","IUCN_CAT":"VI","INT_CRIT":"Not Applicable","STATUS":"Designated","STATUS_YR":1992,"GOV_TYPE":"Not Reported","ISO3":"VEN"}},
    {"type":"Feature","geometry":{"type":"Point","coordinates":[-64.99999999999994,9.716667000000086]},"properties":{"NAME":"Márgenes del Río Guere","DESIG_ENG":"Forest Area under Protection","DESIG_TYPE":"National","IUCN_CAT":"VI","INT_CRIT":"Not Applicable","STATUS":"Designated","STATUS_YR":1992,"GOV_TYPE":"Not Reported","ISO3":"VEN"}},
    {"type":"Feature","geometry":{"type":"Point","coordinates":[-69.31666699999994,8.866667000000064]},"properties":{"NAME":"Piedemonte Portuguesa","DESIG_ENG":"Forest Area under Protection","DESIG_TYPE":"National","IUCN_CAT":"VI","INT_CRIT":"Not Applicable","STATUS":"Designated","STATUS_YR":1992,"GOV_TYPE":"Not Reported","ISO3":"VEN"}},
    {"type":"Feature","geometry":{"type":"Point","coordinates":[-72.81666699999994,9.716667000000086]},"properties":{"NAME":"Río Tucuco","DESIG_ENG":"Forest Area under Protection","DESIG_TYPE":"National","IUCN_CAT":"VI","INT_CRIT":"Not Applicable","STATUS":"Designated","STATUS_YR":1992,"GOV_TYPE":"Not Reported","ISO3":"VEN"}},
    {"type":"Feature","geometry":{"type":"Point","coordinates":[-69.7333329999999,8.63333300000005]},"properties":{"NAME":"La Danta","DESIG_ENG":"Forest Area under Protection","DESIG_TYPE":"National","IUCN_CAT":"VI","INT_CRIT":"Not Applicable","STATUS":"Designated","STATUS_YR":1992,"GOV_TYPE":"Not Reported","ISO3":"VEN"}},
    {"type":"Feature","geometry":{"type":"Point","coordinates":[-68.63333299999994,11.000000000000057]},"properties":{"NAME":"Río Tucurere","DESIG_ENG":"Forest Area under Protection","DESIG_TYPE":"National","IUCN_CAT":"VI","INT_CRIT":"Not Applicable","STATUS":"Designated","STATUS_YR":1992,"GOV_TYPE":"Not Reported","ISO3":"VEN"}},
    {"type":"Feature","geometry":{"type":"Point","coordinates":[-69.44999999999993,8.733333000000073]},"properties":{"NAME":"Río Guanare Viejo","DESIG_ENG":"Forest Area under Protection","DESIG_TYPE":"National","IUCN_CAT":"VI","INT_CRIT":"Not Applicable","STATUS":"Designated","STATUS_YR":1992,"GOV_TYPE":"Not Reported","ISO3":"VEN"}},
    {"type":"Feature","geometry":{"type":"Point","coordinates":[-72.31666699999994,7.733333000000073]},"properties":{"NAME":"Cerro Machado - El Silencio","DESIG_ENG":"Forest Area under Protection","DESIG_TYPE":"National","IUCN_CAT":"VI","INT_CRIT":"Not Applicable","STATUS":"Designated","STATUS_YR":1992,"GOV_TYPE":"Not Reported","ISO3":"VEN"}},
    {"type":"Feature","geometry":{"type":"Point","coordinates":[-61.49999999999994,4.400000000000091]},"properties":{"NAME":"Río Icabarú","DESIG_ENG":"Hydrological Reserve","DESIG_TYPE":"National","IUCN_CAT":"Not Reported","INT_CRIT":"Not Applicable","STATUS":"Designated","STATUS_YR":1992,"GOV_TYPE":"Not Reported","ISO3":"VEN"}},
    {"type":"Feature","geometry":{"type":"Point","coordinates":[-67.7999999999999,10.283333000000084]},"properties":{"NAME":"Pico Jengibre (C.Lago de Valencia)","DESIG_ENG":"Critical Priority Area","DESIG_TYPE":"National","IUCN_CAT":"Not Reported","INT_CRIT":"Not Applicable","STATUS":"Designated","STATUS_YR":1981,"GOV_TYPE":"Not Reported","ISO3":"VEN"}},
    {"type":"Feature","geometry":{"type":"Point","coordinates":[-71.19999999999993,8.63333300000005]},"properties":{"NAME":"Cuenca Rio Albarregas","DESIG_ENG":"Critical Priority Area","DESIG_TYPE":"National","IUCN_CAT":"Not Reported","INT_CRIT":"Not Applicable","STATUS":"Designated","STATUS_YR":1979,"GOV_TYPE":"Not Reported","ISO3":"VEN"}},
    {"type":"Feature","geometry":{"type":"Point","coordinates":[-66.63333299999994,10.416667000000075]},"properties":{"NAME":"Río Tuy","DESIG_ENG":"Critical Priority Area","DESIG_TYPE":"National","IUCN_CAT":"Not Reported","INT_CRIT":"Not Applicable","STATUS":"Designated","STATUS_YR":1992,"GOV_TYPE":"Not Reported","ISO3":"VEN"}},
    {"type":"Feature","geometry":{"type":"Point","coordinates":[-69.7333329999999,8.916667000000075]},"properties":{"NAME":"Guanare Masparro","DESIG_ENG":"Rural Development Area","DESIG_TYPE":"National","IUCN_CAT":"Not Reported","INT_CRIT":"Not Applicable","STATUS":"Designated","STATUS_YR":1974,"GOV_TYPE":"Not Reported","ISO3":"VEN"}},
    {"type":"Feature","geometry":{"type":"Point","coordinates":[-70.99999999999994,8.000000000000057]},"properties":{"NAME":"Tapo - Caparo","DESIG_ENG":"National Park","DESIG_TYPE":"National","IUCN_CAT":"II","INT_CRIT":"Not Applicable","STATUS":"Designated","STATUS_YR":1993,"GOV_TYPE":"Not Reported","ISO3":"VEN"}},
    {"type":"Feature","geometry":{"type":"Point","coordinates":[-71.33333299999993,7.250000000000057]},"properties":{"NAME":"Río Viejo","DESIG_ENG":"National Park","DESIG_TYPE":"National","IUCN_CAT":"II","INT_CRIT":"Not Applicable","STATUS":"Designated","STATUS_YR":1993,"GOV_TYPE":"Not Reported","ISO3":"VEN"}},
    {"type":"Feature","geometry":{"type":"Point","coordinates":[-63.783332999999914,6.13333300000005]},"properties":{"NAME":"Cerro Guaiquinima","DESIG_ENG":"Natural Monument","DESIG_TYPE":"National","IUCN_CAT":"III","INT_CRIT":"Not Applicable","STATUS":"Designated","STATUS_YR":1991,"GOV_TYPE":"Not Reported","ISO3":"VEN"}},
    {"type":"Feature","geometry":{"type":"Point","coordinates":[-63.383332999999936,4.816667000000052]},"properties":{"NAME":"Cerro Uchum y Guanacoco","DESIG_ENG":"Natural Monument","DESIG_TYPE":"National","IUCN_CAT":"III","INT_CRIT":"Not Applicable","STATUS":"Designated","STATUS_YR":1991,"GOV_TYPE":"Not Reported","ISO3":"VEN"}},
    {"type":"Feature","geometry":{"type":"Point","coordinates":[-66.2333329999999,5.63333300000005]},"properties":{"NAME":"Cerro Camani y Morrocoy","DESIG_ENG":"Natural Monument","DESIG_TYPE":"National","IUCN_CAT":"III","INT_CRIT":"Not Applicable","STATUS":"Designated","STATUS_YR":1991,"GOV_TYPE":"Not Reported","ISO3":"VEN"}},
    {"type":"Feature","geometry":{"type":"Point","coordinates":[-62.09999999999991,4.233333000000073]},"properties":{"NAME":"Sierra Marutani","DESIG_ENG":"Natural Monument","DESIG_TYPE":"National","IUCN_CAT":"III","INT_CRIT":"Not Applicable","STATUS":"Designated","STATUS_YR":1991,"GOV_TYPE":"Not Reported","ISO3":"VEN"}},
    {"type":"Feature","geometry":{"type":"Point","coordinates":[-66.13333299999994,5.9500000000000455]},"properties":{"NAME":"Serranía Yutaje-Corocoro","DESIG_ENG":"Natural Monument","DESIG_TYPE":"National","IUCN_CAT":"III","INT_CRIT":"Not Applicable","STATUS":"Designated","STATUS_YR":1991,"GOV_TYPE":"Not Reported","ISO3":"VEN"}},
    {"type":"Feature","geometry":{"type":"Point","coordinates":[-65.44999999999993,1.88333300000005]},"properties":{"NAME":"Sierra Unturán","DESIG_ENG":"Natural Monument","DESIG_TYPE":"National","IUCN_CAT":"III","INT_CRIT":"Not Applicable","STATUS":"Designated","STATUS_YR":1991,"GOV_TYPE":"Not Reported","ISO3":"VEN"}},
    {"type":"Feature","geometry":{"type":"Point","coordinates":[-66.86666699999995,4.916667000000075]},"properties":{"NAME":"Macizo Cuao-Sipapo y Moriche","DESIG_ENG":"Natural Monument","DESIG_TYPE":"National","IUCN_CAT":"III","INT_CRIT":"Not Applicable","STATUS":"Designated","STATUS_YR":1991,"GOV_TYPE":"Not Reported","ISO3":"VEN"}},
    {"type":"Feature","geometry":{"type":"Point","coordinates":[-66.36666699999995,6.10000000000008]},"properties":{"NAME":"Cerro Guanay","DESIG_ENG":"Natural Monument","DESIG_TYPE":"National","IUCN_CAT":"III","INT_CRIT":"Not Applicable","STATUS":"Designated","STATUS_YR":1991,"GOV_TYPE":"Not Reported","ISO3":"VEN"}},
    {"type":"Feature","geometry":{"type":"Point","coordinates":[-65.44999999999993,2.416667000000075]},"properties":{"NAME":"Cerro Vinilla y Aratitiyope","DESIG_ENG":"Natural Monument","DESIG_TYPE":"National","IUCN_CAT":"III","INT_CRIT":"Not Applicable","STATUS":"Designated","STATUS_YR":1991,"GOV_TYPE":"Not Reported","ISO3":"VEN"}},
    {"type":"Feature","geometry":{"type":"Point","coordinates":[-64.99999999999994,6.000000000000057]},"properties":{"NAME":"Sierra Maigualida","DESIG_ENG":"Natural Monument","DESIG_TYPE":"National","IUCN_CAT":"III","INT_CRIT":"Not Applicable","STATUS":"Designated","STATUS_YR":1991,"GOV_TYPE":"Not Reported","ISO3":"VEN"}},
    {"type":"Feature","geometry":{"type":"Point","coordinates":[-61.2333329999999,5.63333300000005]},"properties":{"NAME":"Cerro Venamo","DESIG_ENG":"Natural Monument","DESIG_TYPE":"National","IUCN_CAT":"III","INT_CRIT":"Not Applicable","STATUS":"Designated","STATUS_YR":1991,"GOV_TYPE":"Not Reported","ISO3":"VEN"}},
    {"type":"Feature","geometry":{"type":"Point","coordinates":[-65.89999999999992,5.966667000000086]},"properties":{"NAME":"Cerro Yavi","DESIG_ENG":"Natural Monument","DESIG_TYPE":"National","IUCN_CAT":"III","INT_CRIT":"Not Applicable","STATUS":"Designated","STATUS_YR":1991,"GOV_TYPE":"Not Reported","ISO3":"VEN"}},
    {"type":"Feature","geometry":{"type":"Point","coordinates":[-64.74999999999994,1.334442000000081]},"properties":{"NAME":"Cerro Tamacuare y Serranía Tapirapeco","DESIG_ENG":"Natural Monument","DESIG_TYPE":"National","IUCN_CAT":"III","INT_CRIT":"Not Applicable","STATUS":"Designated","STATUS_YR":1991,"GOV_TYPE":"Not Reported","ISO3":"VEN"}},
    {"type":"Feature","geometry":{"type":"Point","coordinates":[-72.13333299999994,7.63333300000005]},"properties":{"NAME":"Abra-Río Frío","DESIG_ENG":"Natural Monument","DESIG_TYPE":"National","IUCN_CAT":"III","INT_CRIT":"Not Applicable","STATUS":"Designated","STATUS_YR":1993,"GOV_TYPE":"Not Reported","ISO3":"VEN"}},
    {"type":"Feature","geometry":{"type":"Point","coordinates":[-68.86666699999995,10.300000000000068]},"properties":{"NAME":"Depresión Rio Turbio-Yaracuy","DESIG_ENG":"Zone of Agricultural Development","DESIG_TYPE":"National","IUCN_CAT":"Not Reported","INT_CRIT":"Not Applicable","STATUS":"Designated","STATUS_YR":1982,"GOV_TYPE":"Not Reported","ISO3":"VEN"}},
    {"type":"Feature","geometry":{"type":"Point","coordinates":[-70.94999999999993,10.400000000000091]},"properties":{"NAME":"Burro Negro","DESIG_ENG":"Protective Zone","DESIG_TYPE":"National","IUCN_CAT":"V","INT_CRIT":"Not Applicable","STATUS":"Designated","STATUS_YR":1976,"GOV_TYPE":"Not Reported","ISO3":"VEN"}},
    {"type":"Feature","geometry":{"type":"Point","coordinates":[-70.26666699999993,10.916667000000075]},"properties":{"NAME":"Río Pedregal","DESIG_ENG":"Protective Zone","DESIG_TYPE":"National","IUCN_CAT":"V","INT_CRIT":"Not Applicable","STATUS":"Designated","STATUS_YR":1978,"GOV_TYPE":"Not Reported","ISO3":"VEN"}},
    {"type":"Feature","geometry":{"type":"Point","coordinates":[-64.33333299999993,9.583333000000039]},"properties":{"NAME":"Río Capravera","DESIG_ENG":"Protective Zone","DESIG_TYPE":"National","IUCN_CAT":"V","INT_CRIT":"Not Applicable","STATUS":"Designated","STATUS_YR":1978,"GOV_TYPE":"Not Reported","ISO3":"VEN"}},
    {"type":"Feature","geometry":{"type":"Point","coordinates":[-69.71666699999992,9.683333000000061]},"properties":{"NAME":"Cuenca Hidrográfica del Rio Yacambú","DESIG_ENG":"Protective Zone","DESIG_TYPE":"National","IUCN_CAT":"V","INT_CRIT":"Not Applicable","STATUS":"Designated","STATUS_YR":1974,"GOV_TYPE":"Not Reported","ISO3":"VEN"}},
    {"type":"Feature","geometry":{"type":"Point","coordinates":[-63.966666999999916,10.966667000000086]},"properties":{"NAME":"Laguna Blanca o del Morro","DESIG_ENG":"Protective Zone","DESIG_TYPE":"National","IUCN_CAT":"V","INT_CRIT":"Not Applicable","STATUS":"Designated","STATUS_YR":1992,"GOV_TYPE":"Not Reported","ISO3":"VEN"}},
    {"type":"Feature","geometry":{"type":"Point","coordinates":[-67.31666699999994,5.766667000000041]},"properties":{"NAME":"Río Cataniapo","DESIG_ENG":"Protective Zone","DESIG_TYPE":"National","IUCN_CAT":"V","INT_CRIT":"Not Applicable","STATUS":"Designated","STATUS_YR":1993,"GOV_TYPE":"Not Reported","ISO3":"VEN"}},
    {"type":"Feature","geometry":{"type":"Point","coordinates":[-70.44999999999993,9.366667000000064]},"properties":{"NAME":"Río Castan","DESIG_ENG":"Protective Zone","DESIG_TYPE":"National","IUCN_CAT":"V","INT_CRIT":"Not Applicable","STATUS":"Designated","STATUS_YR":1993,"GOV_TYPE":"Not Reported","ISO3":"VEN"}},
    {"type":"Feature","geometry":{"type":"Point","coordinates":[-63.033332999999914,11.333333000000039]},"properties":{"NAME":"Isla Los Testigos","DESIG_ENG":"National Park","DESIG_TYPE":"National","IUCN_CAT":"Not Reported","INT_CRIT":"Not Applicable","STATUS":"Proposed","STATUS_YR":0,"GOV_TYPE":"Not Reported","ISO3":"VEN"}},
    {"type":"Feature","geometry":{"type":"Point","coordinates":[-68.33333299999993,11.050000000000068]},"properties":{"NAME":"Embalses de Játira y Tacarigua","DESIG_ENG":"Wildlife Reserve","DESIG_TYPE":"National","IUCN_CAT":"Not Reported","INT_CRIT":"Not Applicable","STATUS":"Proposed","STATUS_YR":0,"GOV_TYPE":"Not Reported","ISO3":"VEN"}},
    {"type":"Feature","geometry":{"type":"Point","coordinates":[-68.88333299999994,11.433333000000061]},"properties":{"NAME":"Salinas de Sauca","DESIG_ENG":"Wildlife Reserve","DESIG_TYPE":"National","IUCN_CAT":"Not Reported","INT_CRIT":"Not Applicable","STATUS":"Proposed","STATUS_YR":0,"GOV_TYPE":"Not Reported","ISO3":"VEN"}},
    {"type":"Feature","geometry":{"type":"Point","coordinates":[-68.94999999999993,11.416667000000075]},"properties":{"NAME":"Boca de Hueque","DESIG_ENG":"Wildlife Reserve","DESIG_TYPE":"National","IUCN_CAT":"Not Reported","INT_CRIT":"Not Applicable","STATUS":"Proposed","STATUS_YR":0,"GOV_TYPE":"Not Reported","ISO3":"VEN"}},
    {"type":"Feature","geometry":{"type":"Point","coordinates":[-64.58333299999993,11.833333000000039]},"properties":{"NAME":"Isla La Blanquilla","DESIG_ENG":"Other Area","DESIG_TYPE":"National","IUCN_CAT":"Not Reported","INT_CRIT":"Not Applicable","STATUS":"Proposed","STATUS_YR":0,"GOV_TYPE":"Not Reported","ISO3":"VEN"}},
    {"type":"Feature","geometry":{"type":"Point","coordinates":[-63.69999999999993,11.233333000000073]},"properties":{"NAME":"Archipiélago Los Frailes","DESIG_ENG":"Other Area","DESIG_TYPE":"National","IUCN_CAT":"Not Reported","INT_CRIT":"Not Applicable","STATUS":"Proposed","STATUS_YR":0,"GOV_TYPE":"Not Reported","ISO3":"VEN"}},
    {"type":"Feature","geometry":{"type":"Point","coordinates":[-69.4166669999999,11.333333000000039]},"properties":{"NAME":"Cuenca baja del Rio Yaracuy","DESIG_ENG":"Other Area","DESIG_TYPE":"National","IUCN_CAT":"Not Reported","INT_CRIT":"Not Applicable","STATUS":"Proposed","STATUS_YR":0,"GOV_TYPE":"Not Reported","ISO3":"VEN"}},
    {"type":"Feature","geometry":{"type":"Point","coordinates":[-64.99999999999994,2.000000000000057]},"properties":{"NAME":"Alto Orinoco - Casiquiare","DESIG_ENG":"UNESCO-MAB Biosphere Reserve","DESIG_TYPE":"International","IUCN_CAT":"Not Applicable","INT_CRIT":"Not Applicable","STATUS":"Designated","STATUS_YR":1993,"GOV_TYPE":"Not Reported","ISO3":"VEN"}},
    {"type":"Feature","geometry":{"type":"Point","coordinates":[-67.64918999999992,11.973490000000083]},"properties":{"NAME":"Archipielago Las Aves","DESIG_ENG":"Federal Dependency","DESIG_TYPE":"National","IUCN_CAT":"Not Reported","INT_CRIT":"Not Applicable","STATUS":"Designated","STATUS_YR":1972,"GOV_TYPE":"Not Reported","ISO3":"VEN"}},
    {"type":"Feature","geometry":{"type":"Point","coordinates":[-67.66666999999995,12.000000000000057]},"properties":{"NAME":"Archipiélago de las Aves","DESIG_ENG":"National Park","DESIG_TYPE":"National","IUCN_CAT":"Not Reported","INT_CRIT":"Not Applicable","STATUS":"Proposed","STATUS_YR":0,"GOV_TYPE":"Not Reported","ISO3":"VEN"}},
    {"type":"Feature","geometry":{"type":"Point","coordinates":[-64.16666999999995,10.416670000000067]},"properties":{"NAME":"Lagunas de Los Patos (Complejo lagunar San Luis)","DESIG_ENG":"Littoral Park","DESIG_TYPE":"National","IUCN_CAT":"Not Reported","INT_CRIT":"Not Applicable","STATUS":"Designated","STATUS_YR":1978,"GOV_TYPE":"Not Reported","ISO3":"VEN"}},
    {"type":"Feature","geometry":{"type":"Point","coordinates":[-61.10159155999992,8.879345977000071]},"properties":{"NAME":"Delta del Orinoco","DESIG_ENG":"UNESCO-MAB Biosphere Reserve","DESIG_TYPE":"International","IUCN_CAT":"Not Applicable","INT_CRIT":"Not Applicable","STATUS":"Designated","STATUS_YR":2009,"GOV_TYPE":"Not Reported","ISO3":"VEN"}}
    ]}